[
    {
        "city": "Mexico City", 
        "admin": "Ciudad de M\u00e9xico", 
        "country": "Mexico", 
        "population_proper": "10811002", 
        "iso2": "MX", 
        "capital": "primary", 
        "lat": "19.434167", 
        "lng": "-99.138611", 
        "population": "19028000"
    }, 
    {
        "city": "Guadalajara", 
        "admin": "Jalisco", 
        "country": "Mexico", 
        "population_proper": "1640589", 
        "iso2": "MX", 
        "capital": "admin", 
        "lat": "20.666823", 
        "lng": "-103.391824", 
        "population": "4198000"
    }, 
    {
        "city": "Monterrey", 
        "admin": "Nuevo Le\u00f3n", 
        "country": "Mexico", 
        "population_proper": "1122874", 
        "iso2": "MX", 
        "capital": "admin", 
        "lat": "25.675065", 
        "lng": "-100.318465", 
        "population": "3712000"
    }, 
    {
        "city": "Puebla", 
        "admin": "Puebla", 
        "country": "Mexico", 
        "population_proper": "1392099", 
        "iso2": "MX", 
        "capital": "admin", 
        "lat": "19.037926", 
        "lng": "-98.203457", 
        "population": "2195000"
    }, 
    {
        "city": "Tijuana", 
        "admin": "Baja California", 
        "country": "Mexico", 
        "population_proper": "1376457", 
        "iso2": "MX", 
        "capital": "", 
        "lat": "32.502698", 
        "lng": "-117.003714", 
        "population": "1553000"
    }, 
    {
        "city": "Toluca", 
        "admin": "M\u00e9xico", 
        "country": "Mexico", 
        "population_proper": "505881", 
        "iso2": "MX", 
        "capital": "admin", 
        "lat": "19.287311", 
        "lng": "-99.644979", 
        "population": "1531000"
    }, 
    {
        "city": "Le\u00f3n de los Aldama", 
        "admin": "Guanajuato", 
        "country": "Mexico", 
        "population_proper": "1114626", 
        "iso2": "MX", 
        "capital": "minor", 
        "lat": "21.129079", 
        "lng": "-101.673741", 
        "population": "1488000"
    }, 
    {
        "city": "Ciudad Ju\u00e1rez", 
        "admin": "M\u00e9xico", 
        "country": "Mexico", 
        "population_proper": "1343000", 
        "iso2": "MX", 
        "capital": "", 
        "lat": "31.733333", 
        "lng": "-106.483333", 
        "population": "1343000"
    }, 
    {
        "city": "Torreon", 
        "admin": "Coahuila de Zaragoza", 
        "country": "Mexico", 
        "population_proper": "524066", 
        "iso2": "MX", 
        "capital": "", 
        "lat": "25.543891", 
        "lng": "-103.418976", 
        "population": "1144000"
    }, 
    {
        "city": "Ciudad Nezahualc\u00f3yotl", 
        "admin": "M\u00e9xico", 
        "country": "Mexico", 
        "population_proper": "750000", 
        "iso2": "MX", 
        "capital": "", 
        "lat": "19.400608", 
        "lng": "-99.014827", 
        "population": "1109363"
    }, 
    {
        "city": "San Luis Potos\u00ed", 
        "admin": "San Luis Potos\u00ed", 
        "country": "Mexico", 
        "population_proper": "677704", 
        "iso2": "MX", 
        "capital": "admin", 
        "lat": "22.149825", 
        "lng": "-100.979161", 
        "population": "992000"
    }, 
    {
        "city": "M\u00e9rida", 
        "admin": "Yucat\u00e1n", 
        "country": "Mexico", 
        "population_proper": "717175", 
        "iso2": "MX", 
        "capital": "admin", 
        "lat": "20.975368", 
        "lng": "-89.616959", 
        "population": "965000"
    }, 
    {
        "city": "Quer\u00e9taro", 
        "admin": "Quer\u00e9taro", 
        "country": "Mexico", 
        "population_proper": "611785", 
        "iso2": "MX", 
        "capital": "admin", 
        "lat": "20.600014", 
        "lng": "-100.399715", 
        "population": "961000"
    }, 
    {
        "city": "Mexicali", 
        "admin": "Baja California", 
        "country": "Mexico", 
        "population_proper": "587277", 
        "iso2": "MX", 
        "capital": "admin", 
        "lat": "32.650022", 
        "lng": "-115.461069", 
        "population": "885000"
    }, 
    {
        "city": "Aguascalientes", 
        "admin": "Aguascalientes", 
        "country": "Mexico", 
        "population_proper": "658179", 
        "iso2": "MX", 
        "capital": "admin", 
        "lat": "21.88234", 
        "lng": "-102.282586", 
        "population": "869000"
    }, 
    {
        "city": "Tampico", 
        "admin": "Tamaulipas", 
        "country": "Mexico", 
        "population_proper": "297284", 
        "iso2": "MX", 
        "capital": "", 
        "lat": "22.27817", 
        "lng": "-97.86772", 
        "population": "859419"
    }, 
    {
        "city": "Cuernavaca", 
        "admin": "Morelos", 
        "country": "Mexico", 
        "population_proper": "349102", 
        "iso2": "MX", 
        "capital": "admin", 
        "lat": "18.933725", 
        "lng": "-99.228488", 
        "population": "834001"
    }, 
    {
        "city": "Culiac\u00e1n", 
        "admin": "Sinaloa", 
        "country": "Mexico", 
        "population_proper": "582469", 
        "iso2": "MX", 
        "capital": "admin", 
        "lat": "24.790325", 
        "lng": "-107.387816", 
        "population": "809000"
    }, 
    {
        "city": "Chihuahua", 
        "admin": "Chihuahua", 
        "country": "Mexico", 
        "population_proper": "708267", 
        "iso2": "MX", 
        "capital": "admin", 
        "lat": "28.633333", 
        "lng": "-106.083333", 
        "population": "793000"
    }, 
    {
        "city": "Saltillo", 
        "admin": "Coahuila de Zaragoza", 
        "country": "Mexico", 
        "population_proper": "604573", 
        "iso2": "MX", 
        "capital": "admin", 
        "lat": "25.423213", 
        "lng": "-101.005299", 
        "population": "754000"
    }, 
    {
        "city": "Acapulco de Ju\u00e1rez", 
        "admin": "Guerrero", 
        "country": "Mexico", 
        "population_proper": "652136", 
        "iso2": "MX", 
        "capital": "minor", 
        "lat": "16.870236", 
        "lng": "-99.868452", 
        "population": "715584"
    }, 
    {
        "city": "Morelia", 
        "admin": "Michoac\u00e1n de Ocampo", 
        "country": "Mexico", 
        "population_proper": "592797", 
        "iso2": "MX", 
        "capital": "admin", 
        "lat": "19.70179", 
        "lng": "-101.183962", 
        "population": "644306"
    }, 
    {
        "city": "Hermosillo", 
        "admin": "Sonora", 
        "country": "Mexico", 
        "population_proper": "512935", 
        "iso2": "MX", 
        "capital": "admin", 
        "lat": "29.102602", 
        "lng": "-110.977324", 
        "population": "595811"
    }, 
    {
        "city": "Veracruz", 
        "admin": "Veracruz", 
        "country": "Mexico", 
        "population_proper": "568313", 
        "iso2": "MX", 
        "capital": "", 
        "lat": "19.180954", 
        "lng": "-96.142901", 
        "population": "578963"
    }, 
    {
        "city": "Canc\u00fan", 
        "admin": "Quintana Roo", 
        "country": "Mexico", 
        "population_proper": "436862", 
        "iso2": "MX", 
        "capital": "", 
        "lat": "21.172361", 
        "lng": "-86.829546", 
        "population": "542043"
    }, 
    {
        "city": "Matamoros", 
        "admin": "Tamaulipas", 
        "country": "Mexico", 
        "population_proper": "364004", 
        "iso2": "MX", 
        "capital": "", 
        "lat": "25.869581", 
        "lng": "-97.501946", 
        "population": "538785"
    }, 
    {
        "city": "Oaxaca", 
        "admin": "Oaxaca", 
        "country": "Mexico", 
        "population_proper": "262566", 
        "iso2": "MX", 
        "capital": "admin", 
        "lat": "17.065418", 
        "lng": "-96.723645", 
        "population": "530728"
    }, 
    {
        "city": "Tlaxcala", 
        "admin": "Tlaxcala", 
        "country": "Mexico", 
        "population_proper": "89795", 
        "iso2": "MX", 
        "capital": "admin", 
        "lat": "19.319055", 
        "lng": "-98.19982", 
        "population": "503878"
    }, 
    {
        "city": "Mazat\u00e1n", 
        "admin": "Sonora", 
        "country": "Mexico", 
        "population_proper": "438434", 
        "iso2": "MX", 
        "capital": "", 
        "lat": "29.005032", 
        "lng": "-110.137853", 
        "population": "500000"
    }, 
    {
        "city": "Reynosa", 
        "admin": "Tamaulipas", 
        "country": "Mexico", 
        "population_proper": "419340", 
        "iso2": "MX", 
        "capital": "minor", 
        "lat": "26.080613", 
        "lng": "-98.28835", 
        "population": "498654"
    }, 
    {
        "city": "Durango", 
        "admin": "Durango", 
        "country": "Mexico", 
        "population_proper": "455597", 
        "iso2": "MX", 
        "capital": "admin", 
        "lat": "24.019419", 
        "lng": "-104.66069", 
        "population": "457140"
    }, 
    {
        "city": "Xalapa", 
        "admin": "Veracruz", 
        "country": "Mexico", 
        "population_proper": "425148", 
        "iso2": "MX", 
        "capital": "admin", 
        "lat": "19.54386", 
        "lng": "-96.92155", 
        "population": "452186"
    }, 
    {
        "city": "Villahermosa", 
        "admin": "Tabasco", 
        "country": "Mexico", 
        "population_proper": "362401", 
        "iso2": "MX", 
        "capital": "admin", 
        "lat": "17.986893", 
        "lng": "-92.930277", 
        "population": "428564"
    }, 
    {
        "city": "Gomez Palacio", 
        "admin": "Durango", 
        "country": "Mexico", 
        "population_proper": "228577", 
        "iso2": "MX", 
        "capital": "", 
        "lat": "25.569849", 
        "lng": "-103.495882", 
        "population": "399328"
    }, 
    {
        "city": "Celaya", 
        "admin": "Guanajuato", 
        "country": "Mexico", 
        "population_proper": "305901", 
        "iso2": "MX", 
        "capital": "", 
        "lat": "20.52353", 
        "lng": "-100.8157", 
        "population": "383697"
    }, 
    {
        "city": "Mazatl\u00e1n", 
        "admin": "Sinaloa", 
        "country": "Mexico", 
        "population_proper": "354717", 
        "iso2": "MX", 
        "capital": "minor", 
        "lat": "23.2329", 
        "lng": "-106.4062", 
        "population": "368204"
    }, 
    {
        "city": "Orizaba", 
        "admin": "Veracruz", 
        "country": "Mexico", 
        "population_proper": "121348", 
        "iso2": "MX", 
        "capital": "minor", 
        "lat": "18.851947", 
        "lng": "-97.099574", 
        "population": "355333"
    }, 
    {
        "city": "Nuevo Laredo", 
        "admin": "Tamaulipas", 
        "country": "Mexico", 
        "population_proper": "160755", 
        "iso2": "MX", 
        "capital": "", 
        "lat": "27.484635", 
        "lng": "-99.522106", 
        "population": "349550"
    }, 
    {
        "city": "Irapuato", 
        "admin": "Guanajuato", 
        "country": "Mexico", 
        "population_proper": "339554", 
        "iso2": "MX", 
        "capital": "minor", 
        "lat": "20.676754", 
        "lng": "-101.356281", 
        "population": "339554"
    }, 
    {
        "city": "Pachuca", 
        "admin": "Hidalgo", 
        "country": "Mexico", 
        "population_proper": "302141", 
        "iso2": "MX", 
        "capital": "admin", 
        "lat": "20.117362", 
        "lng": "-98.742915", 
        "population": "319581"
    }, 
    {
        "city": "Tepic", 
        "admin": "Nayarit", 
        "country": "Mexico", 
        "population_proper": "280592", 
        "iso2": "MX", 
        "capital": "admin", 
        "lat": "21.509505", 
        "lng": "-104.895691", 
        "population": "318781"
    }, 
    {
        "city": "Ciudad Obreg\u00f3n", 
        "admin": "Sonora", 
        "country": "Mexico", 
        "population_proper": "258162", 
        "iso2": "MX", 
        "capital": "", 
        "lat": "27.486421", 
        "lng": "-109.940826", 
        "population": "288002"
    }, 
    {
        "city": "Coatzacoalcos", 
        "admin": "Veracruz", 
        "country": "Mexico", 
        "population_proper": "230717", 
        "iso2": "MX", 
        "capital": "", 
        "lat": "18.133458", 
        "lng": "-94.442417", 
        "population": "287285"
    }, 
    {
        "city": "Ciudad Victoria", 
        "admin": "Tamaulipas", 
        "country": "Mexico", 
        "population_proper": "269923", 
        "iso2": "MX", 
        "capital": "admin", 
        "lat": "23.741744", 
        "lng": "-99.145993", 
        "population": "274900"
    }, 
    {
        "city": "Uruapan", 
        "admin": "Michoac\u00e1n de Ocampo", 
        "country": "Mexico", 
        "population_proper": "237308", 
        "iso2": "MX", 
        "capital": "minor", 
        "lat": "19.411161", 
        "lng": "-102.05644", 
        "population": "264531"
    }, 
    {
        "city": "Ensenada", 
        "admin": "Baja California", 
        "country": "Mexico", 
        "population_proper": "220937", 
        "iso2": "MX", 
        "capital": "minor", 
        "lat": "31.871492", 
        "lng": "-116.600706", 
        "population": "256565"
    }, 
    {
        "city": "Poza Rica de Hidalgo", 
        "admin": "Veracruz", 
        "country": "Mexico", 
        "population_proper": "174526", 
        "iso2": "MX", 
        "capital": "", 
        "lat": "20.529054", 
        "lng": "-97.449662", 
        "population": "254481"
    }, 
    {
        "city": "Zumpango", 
        "admin": "Morelos", 
        "country": "Mexico", 
        "population_proper": "127988", 
        "iso2": "MX", 
        "capital": "", 
        "lat": "19.796685", 
        "lng": "-98.985422", 
        "population": "250000"
    }, 
    {
        "city": "Los Mochis", 
        "admin": "Sinaloa", 
        "country": "Mexico", 
        "population_proper": "214601", 
        "iso2": "MX", 
        "capital": "minor", 
        "lat": "25.793024", 
        "lng": "-108.998075", 
        "population": "249047"
    }, 
    {
        "city": "Tehuac\u00e1n", 
        "admin": "Puebla", 
        "country": "Mexico", 
        "population_proper": "237312", 
        "iso2": "MX", 
        "capital": "", 
        "lat": "18.461476", 
        "lng": "-97.392821", 
        "population": "241429"
    }, 
    {
        "city": "Monclova", 
        "admin": "Coahuila de Zaragoza", 
        "country": "Mexico", 
        "population_proper": "195764", 
        "iso2": "MX", 
        "capital": "", 
        "lat": "26.906871", 
        "lng": "-101.420565", 
        "population": "236244"
    }, 
    {
        "city": "Zacatecas", 
        "admin": "Zacatecas", 
        "country": "Mexico", 
        "population_proper": "118562", 
        "iso2": "MX", 
        "capital": "admin", 
        "lat": "22.769005", 
        "lng": "-102.571563", 
        "population": "234481"
    }, 
    {
        "city": "Colima", 
        "admin": "Colima", 
        "country": "Mexico", 
        "population_proper": "127235", 
        "iso2": "MX", 
        "capital": "admin", 
        "lat": "19.249972", 
        "lng": "-103.727137", 
        "population": "223287"
    }, 
    {
        "city": "Tapachula", 
        "admin": "Chiapas", 
        "country": "Mexico", 
        "population_proper": "197961", 
        "iso2": "MX", 
        "capital": "minor", 
        "lat": "14.903853", 
        "lng": "-92.257493", 
        "population": "221521"
    }, 
    {
        "city": "C\u00f3rdoba", 
        "admin": "Veracruz", 
        "country": "Mexico", 
        "population_proper": "134403", 
        "iso2": "MX", 
        "capital": "", 
        "lat": "18.885845", 
        "lng": "-96.931253", 
        "population": "220563"
    }, 
    {
        "city": "Zamora", 
        "admin": "Michoac\u00e1n de Ocampo", 
        "country": "Mexico", 
        "population_proper": "124916", 
        "iso2": "MX", 
        "capital": "", 
        "lat": "19.985501", 
        "lng": "-102.283875", 
        "population": "214947"
    }, 
    {
        "city": "Campeche", 
        "admin": "Campeche", 
        "country": "Mexico", 
        "population_proper": "202885", 
        "iso2": "MX", 
        "capital": "admin", 
        "lat": "19.843857", 
        "lng": "-90.525535", 
        "population": "205212"
    }, 
    {
        "city": "Minatitlan", 
        "admin": "Veracruz", 
        "country": "Mexico", 
        "population_proper": "150895", 
        "iso2": "MX", 
        "capital": "", 
        "lat": "17.999253", 
        "lng": "-94.554412", 
        "population": "201902"
    }, 
    {
        "city": "Salamanca", 
        "admin": "Guanajuato", 
        "country": "Mexico", 
        "population_proper": "138614", 
        "iso2": "MX", 
        "capital": "minor", 
        "lat": "20.57196", 
        "lng": "-101.191544", 
        "population": "197524"
    }, 
    {
        "city": "Ciudad Madero", 
        "admin": "Tamaulipas", 
        "country": "Mexico", 
        "population_proper": "138087", 
        "iso2": "MX", 
        "capital": "", 
        "lat": "22.272282", 
        "lng": "-97.83623", 
        "population": "192736"
    }, 
    {
        "city": "La Paz", 
        "admin": "Baja California Sur", 
        "country": "Mexico", 
        "population_proper": "171485", 
        "iso2": "MX", 
        "capital": "admin", 
        "lat": "24.144373", 
        "lng": "-110.300501", 
        "population": "189767"
    }, 
    {
        "city": "Puerto Vallarta", 
        "admin": "Jalisco", 
        "country": "Mexico", 
        "population_proper": "180804", 
        "iso2": "MX", 
        "capital": "", 
        "lat": "20.611251", 
        "lng": "-105.233465", 
        "population": "187134"
    }, 
    {
        "city": "San Crist\u00f3bal de las Casas", 
        "admin": "Chiapas", 
        "country": "Mexico", 
        "population_proper": "128996", 
        "iso2": "MX", 
        "capital": "minor", 
        "lat": "16.731757", 
        "lng": "-92.64126", 
        "population": "186661"
    }, 
    {
        "city": "Chilpancingo", 
        "admin": "Guerrero", 
        "country": "Mexico", 
        "population_proper": "165250", 
        "iso2": "MX", 
        "capital": "admin", 
        "lat": "17.550599", 
        "lng": "-99.505783", 
        "population": "182387"
    }, 
    {
        "city": "Nogales", 
        "admin": "Sonora", 
        "country": "Mexico", 
        "population_proper": "20707", 
        "iso2": "MX", 
        "capital": "minor", 
        "lat": "31.314631", 
        "lng": "-110.94683", 
        "population": "178097"
    }, 
    {
        "city": "Teziutlan", 
        "admin": "Puebla", 
        "country": "Mexico", 
        "population_proper": "70819", 
        "iso2": "MX", 
        "capital": "", 
        "lat": "19.8173", 
        "lng": "-97.35992", 
        "population": "177796"
    }, 
    {
        "city": "Ciudad L\u00e1zaro C\u00e1rdenas", 
        "admin": "Michoac\u00e1n de Ocampo", 
        "country": "Mexico", 
        "population_proper": "84001", 
        "iso2": "MX", 
        "capital": "", 
        "lat": "17.970661", 
        "lng": "-102.221243", 
        "population": "160087"
    }, 
    {
        "city": "Ciudad del Carmen", 
        "admin": "Campeche", 
        "country": "Mexico", 
        "population_proper": "141308", 
        "iso2": "MX", 
        "capital": "minor", 
        "lat": "18.64774", 
        "lng": "-91.824235", 
        "population": "156195"
    }, 
    {
        "city": "Chetumal", 
        "admin": "Quintana Roo", 
        "country": "Mexico", 
        "population_proper": "134412", 
        "iso2": "MX", 
        "capital": "admin", 
        "lat": "18.514126", 
        "lng": "-88.303813", 
        "population": "154517"
    }, 
    {
        "city": "San Juan del R\u00edo", 
        "admin": "Quer\u00e9taro", 
        "country": "Mexico", 
        "population_proper": "118173", 
        "iso2": "MX", 
        "capital": "minor", 
        "lat": "20.38886", 
        "lng": "-99.995769", 
        "population": "147559"
    }, 
    {
        "city": "Ejido Piedras Negras", 
        "admin": "Coahuila de Zaragoza", 
        "country": "Mexico", 
        "population_proper": "134971", 
        "iso2": "MX", 
        "capital": "", 
        "lat": "28.723359", 
        "lng": "-100.56696", 
        "population": "139619"
    }, 
    {
        "city": "Navojoa", 
        "admin": "Sonora", 
        "country": "Mexico", 
        "population_proper": "116093", 
        "iso2": "MX", 
        "capital": "minor", 
        "lat": "27.070284", 
        "lng": "-109.443716", 
        "population": "116093"
    }, 
    {
        "city": "Ciudad Valles", 
        "admin": "San Luis Potos\u00ed", 
        "country": "Mexico", 
        "population_proper": "109504", 
        "iso2": "MX", 
        "capital": "", 
        "lat": "21.996314", 
        "lng": "-99.01093", 
        "population": "114964"
    }, 
    {
        "city": "Delicias", 
        "admin": "Chihuahua", 
        "country": "Mexico", 
        "population_proper": "102969", 
        "iso2": "MX", 
        "capital": "minor", 
        "lat": "28.192864", 
        "lng": "-105.471128", 
        "population": "114783"
    }, 
    {
        "city": "Guanajuato", 
        "admin": "Guanajuato", 
        "country": "Mexico", 
        "population_proper": "78364", 
        "iso2": "MX", 
        "capital": "admin", 
        "lat": "21.018268", 
        "lng": "-101.256979", 
        "population": "112200"
    }, 
    {
        "city": "Manzanillo", 
        "admin": "Colima", 
        "country": "Mexico", 
        "population_proper": "59738", 
        "iso2": "MX", 
        "capital": "minor", 
        "lat": "19.04993", 
        "lng": "-104.315426", 
        "population": "110735"
    }, 
    {
        "city": "Tuxpilla", 
        "admin": "Veracruz", 
        "country": "Mexico", 
        "population_proper": "8331", 
        "iso2": "MX", 
        "capital": "", 
        "lat": "20.916667", 
        "lng": "-97.416667", 
        "population": "109049"
    }, 
    {
        "city": "Escuintla", 
        "admin": "Chiapas", 
        "country": "Mexico", 
        "population_proper": "8989", 
        "iso2": "MX", 
        "capital": "minor", 
        "lat": "15.321243", 
        "lng": "-92.659453", 
        "population": "107638"
    }, 
    {
        "city": "El Fresno", 
        "admin": "Zacatecas", 
        "country": "Mexico", 
        "population_proper": "99771", 
        "iso2": "MX", 
        "capital": "", 
        "lat": "23.161149", 
        "lng": "-102.828838", 
        "population": "105488"
    }, 
    {
        "city": "Heroica Guaymas", 
        "admin": "Sonora", 
        "country": "Mexico", 
        "population_proper": "65544", 
        "iso2": "MX", 
        "capital": "", 
        "lat": "27.91928", 
        "lng": "-110.897551", 
        "population": "103449"
    }, 
    {
        "city": "Guasavito", 
        "admin": "Sinaloa", 
        "country": "Mexico", 
        "population_proper": "68449", 
        "iso2": "MX", 
        "capital": "", 
        "lat": "25.552978", 
        "lng": "-108.435011", 
        "population": "96860"
    }, 
    {
        "city": "Lagos de Moreno", 
        "admin": "Jalisco", 
        "country": "Mexico", 
        "population_proper": "84677", 
        "iso2": "MX", 
        "capital": "minor", 
        "lat": "21.356657", 
        "lng": "-101.937681", 
        "population": "94127"
    }, 
    {
        "city": "Ciudad Guzm\u00e1n", 
        "admin": "Jalisco", 
        "country": "Mexico", 
        "population_proper": "88799", 
        "iso2": "MX", 
        "capital": "", 
        "lat": "19.704663", 
        "lng": "-103.461702", 
        "population": "92161"
    }, 
    {
        "city": "Tecom\u00e1n", 
        "admin": "Colima", 
        "country": "Mexico", 
        "population_proper": "79579", 
        "iso2": "MX", 
        "capital": "", 
        "lat": "18.947664", 
        "lng": "-103.900403", 
        "population": "91321"
    }, 
    {
        "city": "Cuauht\u00e9moc", 
        "admin": "Chihuahua", 
        "country": "Mexico", 
        "population_proper": "79100", 
        "iso2": "MX", 
        "capital": "", 
        "lat": "28.408842", 
        "lng": "-106.863193", 
        "population": "90835"
    }, 
    {
        "city": "Agua Prieta", 
        "admin": "Sonora", 
        "country": "Mexico", 
        "population_proper": "68446", 
        "iso2": "MX", 
        "capital": "minor", 
        "lat": "31.330706", 
        "lng": "-109.548756", 
        "population": "86083"
    }, 
    {
        "city": "Salina Cruz", 
        "admin": "Oaxaca", 
        "country": "Mexico", 
        "population_proper": "73648", 
        "iso2": "MX", 
        "capital": "", 
        "lat": "16.197501", 
        "lng": "-95.202188", 
        "population": "81063"
    }, 
    {
        "city": "Ciudad Mante", 
        "admin": "Tamaulipas", 
        "country": "Mexico", 
        "population_proper": "76618", 
        "iso2": "MX", 
        "capital": "", 
        "lat": "22.743043", 
        "lng": "-98.973903", 
        "population": "79981"
    }, 
    {
        "city": "Tamazunchale", 
        "admin": "San Luis Potos\u00ed", 
        "country": "Mexico", 
        "population_proper": "21532", 
        "iso2": "MX", 
        "capital": "", 
        "lat": "21.259926", 
        "lng": "-98.789351", 
        "population": "72685"
    }, 
    {
        "city": "R\u00edoverde", 
        "admin": "San Luis Potos\u00ed", 
        "country": "Mexico", 
        "population_proper": "48854", 
        "iso2": "MX", 
        "capital": "minor", 
        "lat": "21.931146", 
        "lng": "-99.994879", 
        "population": "69613"
    }, 
    {
        "city": "Matehuala", 
        "admin": "San Luis Potos\u00ed", 
        "country": "Mexico", 
        "population_proper": "59532", 
        "iso2": "MX", 
        "capital": "", 
        "lat": "23.648243", 
        "lng": "-100.643337", 
        "population": "67717"
    }, 
    {
        "city": "Ciudad Hidalgo", 
        "admin": "Michoac\u00e1n de Ocampo", 
        "country": "Mexico", 
        "population_proper": "54993", 
        "iso2": "MX", 
        "capital": "minor", 
        "lat": "19.692697", 
        "lng": "-100.554449", 
        "population": "64154"
    }, 
    {
        "city": "Guam\u00fachil", 
        "admin": "Sinaloa", 
        "country": "Mexico", 
        "population_proper": "59276", 
        "iso2": "MX", 
        "capital": "", 
        "lat": "25.459776", 
        "lng": "-108.075297", 
        "population": "62695"
    }, 
    {
        "city": "Linares", 
        "admin": "Nuevo Le\u00f3n", 
        "country": "Mexico", 
        "population_proper": "46968", 
        "iso2": "MX", 
        "capital": "minor", 
        "lat": "24.859088", 
        "lng": "-99.56551", 
        "population": "57731"
    }, 
    {
        "city": "Heroica Caborca", 
        "admin": "Sonora", 
        "country": "Mexico", 
        "population_proper": "52896", 
        "iso2": "MX", 
        "capital": "minor", 
        "lat": "30.718253", 
        "lng": "-112.158217", 
        "population": "57357"
    }, 
    {
        "city": "Nuevo Casas Grandes", 
        "admin": "Chihuahua", 
        "country": "Mexico", 
        "population_proper": "51356", 
        "iso2": "MX", 
        "capital": "", 
        "lat": "30.422983", 
        "lng": "-107.909475", 
        "population": "54826"
    }, 
    {
        "city": "San Pedro de Las Colonias", 
        "admin": "Coahuila de Zaragoza", 
        "country": "Mexico", 
        "population_proper": "53688", 
        "iso2": "MX", 
        "capital": "minor", 
        "lat": "25.756019", 
        "lng": "-102.983845", 
        "population": "53688"
    }, 
    {
        "city": "Valladolid", 
        "admin": "Yucat\u00e1n", 
        "country": "Mexico", 
        "population_proper": "39663", 
        "iso2": "MX", 
        "capital": "", 
        "lat": "20.689967", 
        "lng": "-88.202155", 
        "population": "48479"
    }, 
    {
        "city": "Ciudad de Huajuapam de Le\u00f3n", 
        "admin": "Oaxaca", 
        "country": "Mexico", 
        "population_proper": "35689", 
        "iso2": "MX", 
        "capital": "minor", 
        "lat": "17.807872", 
        "lng": "-97.779561", 
        "population": "47844"
    }, 
    {
        "city": "Autl\u00e1n", 
        "admin": "Jalisco", 
        "country": "Mexico", 
        "population_proper": "42155", 
        "iso2": "MX", 
        "capital": "", 
        "lat": "19.79905", 
        "lng": "-104.357751", 
        "population": "47669"
    }, 
    {
        "city": "Progreso", 
        "admin": "Yucat\u00e1n", 
        "country": "Mexico", 
        "population_proper": "20661", 
        "iso2": "MX", 
        "capital": "minor", 
        "lat": "21.283064", 
        "lng": "-89.661232", 
        "population": "47124"
    }, 
    {
        "city": "Santo Domingo Tehuantepec", 
        "admin": "Oaxaca", 
        "country": "Mexico", 
        "population_proper": "37389", 
        "iso2": "MX", 
        "capital": "minor", 
        "lat": "16.318534", 
        "lng": "-95.247662", 
        "population": "42776"
    }, 
    {
        "city": "Morelos", 
        "admin": "Nuevo Le\u00f3n", 
        "country": "Mexico", 
        "population_proper": "37694", 
        "iso2": "MX", 
        "capital": "", 
        "lat": "25.176891", 
        "lng": "-99.830307", 
        "population": "42640"
    }, 
    {
        "city": "Cabo San Lucas", 
        "admin": "Baja California Sur", 
        "country": "Mexico", 
        "population_proper": "36384", 
        "iso2": "MX", 
        "capital": "", 
        "lat": "22.89055", 
        "lng": "-109.916386", 
        "population": "42601"
    }, 
    {
        "city": "Tizim\u00edn", 
        "admin": "Yucat\u00e1n", 
        "country": "Mexico", 
        "population_proper": "40652", 
        "iso2": "MX", 
        "capital": "minor", 
        "lat": "21.142681", 
        "lng": "-88.151009", 
        "population": "41993"
    }, 
    {
        "city": "Ciudad Constituci\u00f3n", 
        "admin": "Baja California Sur", 
        "country": "Mexico", 
        "population_proper": "35296", 
        "iso2": "MX", 
        "capital": "minor", 
        "lat": "25.032097", 
        "lng": "-111.662558", 
        "population": "39915"
    }, 
    {
        "city": "Ciudad Camargo", 
        "admin": "Chihuahua", 
        "country": "Mexico", 
        "population_proper": "34066", 
        "iso2": "MX", 
        "capital": "", 
        "lat": "27.678417", 
        "lng": "-105.171362", 
        "population": "37743"
    }, 
    {
        "city": "Nueva Rosita", 
        "admin": "Coahuila de Zaragoza", 
        "country": "Mexico", 
        "population_proper": "34851", 
        "iso2": "MX", 
        "capital": "", 
        "lat": "27.940276", 
        "lng": "-101.218117", 
        "population": "36642"
    }, 
    {
        "city": "Las Mar\u00edas", 
        "admin": "Jalisco", 
        "country": "Mexico", 
        "population_proper": "34449", 
        "iso2": "MX", 
        "capital": "", 
        "lat": "20.290605", 
        "lng": "-102.561758", 
        "population": "35345"
    }, 
    {
        "city": "P\u00e1nuco", 
        "admin": "Veracruz", 
        "country": "Mexico", 
        "population_proper": "31583", 
        "iso2": "MX", 
        "capital": "", 
        "lat": "22.053725", 
        "lng": "-98.18498", 
        "population": "35316"
    }, 
    {
        "city": "Cananea", 
        "admin": "Sonora", 
        "country": "Mexico", 
        "population_proper": "23818", 
        "iso2": "MX", 
        "capital": "", 
        "lat": "30.986988", 
        "lng": "-110.290621", 
        "population": "33433"
    }, 
    {
        "city": "Cuidad Sabinas Hidalgo", 
        "admin": "Nuevo Le\u00f3n", 
        "country": "Mexico", 
        "population_proper": "20198", 
        "iso2": "MX", 
        "capital": "", 
        "lat": "26.504628", 
        "lng": "-100.181101", 
        "population": "32047"
    }, 
    {
        "city": "Petatl\u00e1n", 
        "admin": "Guerrero", 
        "country": "Mexico", 
        "population_proper": "21038", 
        "iso2": "MX", 
        "capital": "minor", 
        "lat": "17.537682", 
        "lng": "-101.26798", 
        "population": "31910"
    }, 
    {
        "city": "Ticul", 
        "admin": "Yucat\u00e1n", 
        "country": "Mexico", 
        "population_proper": "30282", 
        "iso2": "MX", 
        "capital": "", 
        "lat": "20.398332", 
        "lng": "-89.535411", 
        "population": "30519"
    }, 
    {
        "city": "Huatabampo", 
        "admin": "Sonora", 
        "country": "Mexico", 
        "population_proper": "25063", 
        "iso2": "MX", 
        "capital": "", 
        "lat": "26.8261", 
        "lng": "-109.6422", 
        "population": "30426"
    }, 
    {
        "city": "Ometepec", 
        "admin": "Guerrero", 
        "country": "Mexico", 
        "population_proper": "17801", 
        "iso2": "MX", 
        "capital": "", 
        "lat": "16.690084", 
        "lng": "-98.407975", 
        "population": "30271"
    }, 
    {
        "city": "San Juan", 
        "admin": "Tamaulipas", 
        "country": "Mexico", 
        "population_proper": "22021", 
        "iso2": "MX", 
        "capital": "", 
        "lat": "24.856891", 
        "lng": "-98.116818", 
        "population": "29171"
    }, 
    {
        "city": "Escuinapa de Hidalgo", 
        "admin": "Sinaloa", 
        "country": "Mexico", 
        "population_proper": "28248", 
        "iso2": "MX", 
        "capital": "", 
        "lat": "22.832534", 
        "lng": "-105.775391", 
        "population": "28248"
    }, 
    {
        "city": "Champot\u00f3n", 
        "admin": "Campeche", 
        "country": "Mexico", 
        "population_proper": "24809", 
        "iso2": "MX", 
        "capital": "", 
        "lat": "19.34441", 
        "lng": "-90.725764", 
        "population": "26636"
    }, 
    {
        "city": "Tuxpan", 
        "admin": "Nayarit", 
        "country": "Mexico", 
        "population_proper": "26115", 
        "iso2": "MX", 
        "capital": "", 
        "lat": "21.94221", 
        "lng": "-105.2987", 
        "population": "26115"
    }, 
    {
        "city": "Felipe Carrillo Puerto", 
        "admin": "Quintana Roo", 
        "country": "Mexico", 
        "population_proper": "23109", 
        "iso2": "MX", 
        "capital": "", 
        "lat": "19.577497", 
        "lng": "-88.04529", 
        "population": "24807"
    }, 
    {
        "city": "Ciudad Altamirano", 
        "admin": "Guerrero", 
        "country": "Mexico", 
        "population_proper": "24533", 
        "iso2": "MX", 
        "capital": "", 
        "lat": "18.358199", 
        "lng": "-100.669649", 
        "population": "24533"
    }, 
    {
        "city": "San Pedro Pochutla", 
        "admin": "Oaxaca", 
        "country": "Mexico", 
        "population_proper": "13078", 
        "iso2": "MX", 
        "capital": "minor", 
        "lat": "15.745873", 
        "lng": "-96.466011", 
        "population": "24481"
    }, 
    {
        "city": "Paraiso", 
        "admin": "Tabasco", 
        "country": "Mexico", 
        "population_proper": "4505", 
        "iso2": "MX", 
        "capital": "", 
        "lat": "18.398772", 
        "lng": "-93.213137", 
        "population": "23830"
    }, 
    {
        "city": "Pijijiapan", 
        "admin": "Chiapas", 
        "country": "Mexico", 
        "population_proper": "15101", 
        "iso2": "MX", 
        "capital": "minor", 
        "lat": "15.685991", 
        "lng": "-93.211087", 
        "population": "23675"
    }, 
    {
        "city": "Tecax", 
        "admin": "Yucat\u00e1n", 
        "country": "Mexico", 
        "population_proper": "18348", 
        "iso2": "MX", 
        "capital": "", 
        "lat": "20.205196", 
        "lng": "-89.28522", 
        "population": "22806"
    }, 
    {
        "city": "San Miguel de Papasquiaro", 
        "admin": "Durango", 
        "country": "Mexico", 
        "population_proper": "521", 
        "iso2": "MX", 
        "capital": "", 
        "lat": "24.830785", 
        "lng": "-105.336402", 
        "population": "22750"
    }, 
    {
        "city": "Frontera", 
        "admin": "Tabasco", 
        "country": "Mexico", 
        "population_proper": "7407", 
        "iso2": "MX", 
        "capital": "", 
        "lat": "18.533128", 
        "lng": "-92.647443", 
        "population": "22621"
    }, 
    {
        "city": "Estaci\u00f3n Ojinaga", 
        "admin": "Chihuahua", 
        "country": "Mexico", 
        "population_proper": "17481", 
        "iso2": "MX", 
        "capital": "", 
        "lat": "29.532589", 
        "lng": "-104.39086", 
        "population": "22128"
    }, 
    {
        "city": "Tlaxiaco", 
        "admin": "Oaxaca", 
        "country": "Mexico", 
        "population_proper": "14608", 
        "iso2": "MX", 
        "capital": "", 
        "lat": "17.228193", 
        "lng": "-97.771983", 
        "population": "21391"
    }, 
    {
        "city": "Motul", 
        "admin": "Yucat\u00e1n", 
        "country": "Mexico", 
        "population_proper": "21109", 
        "iso2": "MX", 
        "capital": "", 
        "lat": "21.09571", 
        "lng": "-89.28332", 
        "population": "21253"
    }, 
    {
        "city": "San Felipe", 
        "admin": "Baja California", 
        "country": "Mexico", 
        "population_proper": "15386", 
        "iso2": "MX", 
        "capital": "", 
        "lat": "31.024679", 
        "lng": "-114.839188", 
        "population": "20750"
    }, 
    {
        "city": "Allende", 
        "admin": "Coahuila de Zaragoza", 
        "country": "Mexico", 
        "population_proper": "16901", 
        "iso2": "MX", 
        "capital": "minor", 
        "lat": "28.34124", 
        "lng": "-100.851107", 
        "population": "19636"
    }, 
    {
        "city": "Puerto Escondido", 
        "admin": "Oaxaca", 
        "country": "Mexico", 
        "population_proper": "11317", 
        "iso2": "MX", 
        "capital": "", 
        "lat": "15.870994", 
        "lng": "-97.075729", 
        "population": "19488"
    }, 
    {
        "city": "Santiago Ixcuintla", 
        "admin": "Nayarit", 
        "country": "Mexico", 
        "population_proper": "15790", 
        "iso2": "MX", 
        "capital": "", 
        "lat": "21.812952", 
        "lng": "-105.208437", 
        "population": "18365"
    }, 
    {
        "city": "Miahuatl\u00e1n", 
        "admin": "Oaxaca", 
        "country": "Mexico", 
        "population_proper": "15691", 
        "iso2": "MX", 
        "capital": "", 
        "lat": "16.2", 
        "lng": "-96.616667", 
        "population": "17632"
    }, 
    {
        "city": "Peto", 
        "admin": "Yucat\u00e1n", 
        "country": "Mexico", 
        "population_proper": "8241", 
        "iso2": "MX", 
        "capital": "", 
        "lat": "20.127761", 
        "lng": "-88.922818", 
        "population": "17607"
    }, 
    {
        "city": "El Dorado", 
        "admin": "Sinaloa", 
        "country": "Mexico", 
        "population_proper": "14136", 
        "iso2": "MX", 
        "capital": "", 
        "lat": "24.322832", 
        "lng": "-107.36298", 
        "population": "17365"
    }, 
    {
        "city": "Compostela", 
        "admin": "Nayarit", 
        "country": "Mexico", 
        "population_proper": "14222", 
        "iso2": "MX", 
        "capital": "", 
        "lat": "21.237774", 
        "lng": "-104.9001", 
        "population": "16162"
    }, 
    {
        "city": "Santiago Tuxtla", 
        "admin": "Veracruz", 
        "country": "Mexico", 
        "population_proper": "11515", 
        "iso2": "MX", 
        "capital": "", 
        "lat": "18.465763", 
        "lng": "-95.300603", 
        "population": "15681"
    }, 
    {
        "city": "Villa Uni\u00f3n", 
        "admin": "Sinaloa", 
        "country": "Mexico", 
        "population_proper": "13683", 
        "iso2": "MX", 
        "capital": "", 
        "lat": "23.188629", 
        "lng": "-106.216452", 
        "population": "15443"
    }, 
    {
        "city": "Cardenas", 
        "admin": "San Luis Potos\u00ed", 
        "country": "Mexico", 
        "population_proper": "15331", 
        "iso2": "MX", 
        "capital": "", 
        "lat": "22.001439", 
        "lng": "-99.642473", 
        "population": "15331"
    }, 
    {
        "city": "Izamal", 
        "admin": "Yucat\u00e1n", 
        "country": "Mexico", 
        "population_proper": "14186", 
        "iso2": "MX", 
        "capital": "", 
        "lat": "20.935373", 
        "lng": "-89.018019", 
        "population": "14954"
    }, 
    {
        "city": "Tecuala", 
        "admin": "Nayarit", 
        "country": "Mexico", 
        "population_proper": "10583", 
        "iso2": "MX", 
        "capital": "minor", 
        "lat": "22.398148", 
        "lng": "-105.458076", 
        "population": "14921"
    }, 
    {
        "city": "Tamuin", 
        "admin": "San Luis Potos\u00ed", 
        "country": "Mexico", 
        "population_proper": "7405", 
        "iso2": "MX", 
        "capital": "", 
        "lat": "22.005539", 
        "lng": "-98.779724", 
        "population": "14748"
    }, 
    {
        "city": "Juan Aldama", 
        "admin": "Zacatecas", 
        "country": "Mexico", 
        "population_proper": "12073", 
        "iso2": "MX", 
        "capital": "", 
        "lat": "24.291883", 
        "lng": "-103.392716", 
        "population": "14162"
    }, 
    {
        "city": "Guerrero Negro", 
        "admin": "Baja California", 
        "country": "Mexico", 
        "population_proper": "13054", 
        "iso2": "MX", 
        "capital": "", 
        "lat": "27.968907", 
        "lng": "-114.044275", 
        "population": "13054"
    }, 
    {
        "city": "Vicente Guerrero", 
        "admin": "Baja California", 
        "country": "Mexico", 
        "population_proper": "1760", 
        "iso2": "MX", 
        "capital": "", 
        "lat": "30.730966", 
        "lng": "-115.990706", 
        "population": "12829"
    }, 
    {
        "city": "Isla Mujeres", 
        "admin": "Quintana Roo", 
        "country": "Mexico", 
        "population_proper": "12491", 
        "iso2": "MX", 
        "capital": "", 
        "lat": "21.236614", 
        "lng": "-86.734289", 
        "population": "12491"
    }, 
    {
        "city": "Aldama", 
        "admin": "Tamaulipas", 
        "country": "Mexico", 
        "population_proper": "10442", 
        "iso2": "MX", 
        "capital": "", 
        "lat": "22.921573", 
        "lng": "-98.075191", 
        "population": "12292"
    }, 
    {
        "city": "La Cruz", 
        "admin": "Sinaloa", 
        "country": "Mexico", 
        "population_proper": "11155", 
        "iso2": "MX", 
        "capital": "minor", 
        "lat": "23.921263", 
        "lng": "-106.892496", 
        "population": "11900"
    }, 
    {
        "city": "Santa Rosalia", 
        "admin": "Baja California Sur", 
        "country": "Mexico", 
        "population_proper": "10321", 
        "iso2": "MX", 
        "capital": "", 
        "lat": "27.340455", 
        "lng": "-112.267607", 
        "population": "11899"
    }, 
    {
        "city": "Balanc\u00e1n", 
        "admin": "Tabasco", 
        "country": "Mexico", 
        "population_proper": "3438", 
        "iso2": "MX", 
        "capital": "", 
        "lat": "17.850115", 
        "lng": "-91.531267", 
        "population": "11895"
    }, 
    {
        "city": "Nacozari Viejo", 
        "admin": "Sonora", 
        "country": "Mexico", 
        "population_proper": "11872", 
        "iso2": "MX", 
        "capital": "", 
        "lat": "30.308926", 
        "lng": "-109.686145", 
        "population": "11872"
    }, 
    {
        "city": "Ascensi\u00f3n", 
        "admin": "Chihuahua", 
        "country": "Mexico", 
        "population_proper": "9741", 
        "iso2": "MX", 
        "capital": "", 
        "lat": "31.092603", 
        "lng": "-107.996867", 
        "population": "11781"
    }, 
    {
        "city": "Loreto", 
        "admin": "Baja California Sur", 
        "country": "Mexico", 
        "population_proper": "10294", 
        "iso2": "MX", 
        "capital": "", 
        "lat": "26.010687", 
        "lng": "-111.343743", 
        "population": "11227"
    }, 
    {
        "city": "Villanueva", 
        "admin": "Zacatecas", 
        "country": "Mexico", 
        "population_proper": "7049", 
        "iso2": "MX", 
        "capital": "minor", 
        "lat": "22.355268", 
        "lng": "-102.882643", 
        "population": "11138"
    }, 
    {
        "city": "Santa B\u00e1rbara", 
        "admin": "Chihuahua", 
        "country": "Mexico", 
        "population_proper": "6027", 
        "iso2": "MX", 
        "capital": "minor", 
        "lat": "26.80381", 
        "lng": "-105.820242", 
        "population": "10800"
    }, 
    {
        "city": "Valpara\u00edso", 
        "admin": "Zacatecas", 
        "country": "Mexico", 
        "population_proper": "5368", 
        "iso2": "MX", 
        "capital": "", 
        "lat": "22.771042", 
        "lng": "-103.569908", 
        "population": "10545"
    }, 
    {
        "city": "Canatl\u00e1n", 
        "admin": "Durango", 
        "country": "Mexico", 
        "population_proper": "5271", 
        "iso2": "MX", 
        "capital": "", 
        "lat": "24.525762", 
        "lng": "-104.773269", 
        "population": "10342"
    }, 
    {
        "city": "Miguel Ahumada", 
        "admin": "Chihuahua", 
        "country": "Mexico", 
        "population_proper": "7101", 
        "iso2": "MX", 
        "capital": "", 
        "lat": "30.615059", 
        "lng": "-106.514187", 
        "population": "9326"
    }, 
    {
        "city": "Halach\u00f3", 
        "admin": "Yucat\u00e1n", 
        "country": "Mexico", 
        "population_proper": "7067", 
        "iso2": "MX", 
        "capital": "minor", 
        "lat": "20.477696", 
        "lng": "-90.081037", 
        "population": "9165"
    }, 
    {
        "city": "Tula", 
        "admin": "Tamaulipas", 
        "country": "Mexico", 
        "population_proper": "312", 
        "iso2": "MX", 
        "capital": "", 
        "lat": "22.996447", 
        "lng": "-99.711715", 
        "population": "9054"
    }, 
    {
        "city": "Cuencam\u00e9", 
        "admin": "Durango", 
        "country": "Mexico", 
        "population_proper": "1956", 
        "iso2": "MX", 
        "capital": "", 
        "lat": "24.871155", 
        "lng": "-103.697307", 
        "population": "8876"
    }, 
    {
        "city": "San Antonio", 
        "admin": "Baja California", 
        "country": "Mexico", 
        "population_proper": "5433", 
        "iso2": "MX", 
        "capital": "", 
        "lat": "30.470868", 
        "lng": "-115.954575", 
        "population": "5433"
    }, 
    {
        "city": "Esperanza", 
        "admin": "Sonora", 
        "country": "Mexico", 
        "population_proper": "3836", 
        "iso2": "MX", 
        "capital": "", 
        "lat": "27.57916", 
        "lng": "-109.9298", 
        "population": "3836"
    }, 
    {
        "city": "Ejido Nautla", 
        "admin": "Veracruz", 
        "country": "Mexico", 
        "population_proper": "2417", 
        "iso2": "MX", 
        "capital": "", 
        "lat": "20.197394", 
        "lng": "-96.761902", 
        "population": "2890"
    }, 
    {
        "city": "Altata", 
        "admin": "Sinaloa", 
        "country": "Mexico", 
        "population_proper": "500", 
        "iso2": "MX", 
        "capital": "", 
        "lat": "24.634032", 
        "lng": "-107.931007", 
        "population": "1000"
    }, 
    {
        "city": "Punta Prieta", 
        "admin": "Baja California", 
        "country": "Mexico", 
        "population_proper": "527", 
        "iso2": "MX", 
        "capital": "", 
        "lat": "28.925882", 
        "lng": "-114.161385", 
        "population": "527"
    }, 
    {
        "city": "San Felipe", 
        "admin": "Guanajuato", 
        "country": "Mexico", 
        "population_proper": "", 
        "iso2": "MX", 
        "capital": "minor", 
        "lat": "21.478311", 
        "lng": "-101.215659", 
        "population": ""
    }, 
    {
        "city": "Santa Clara Huitziltepec", 
        "admin": "Puebla", 
        "country": "Mexico", 
        "population_proper": "", 
        "iso2": "MX", 
        "capital": "minor", 
        "lat": "18.768896", 
        "lng": "-97.881175", 
        "population": ""
    }, 
    {
        "city": "Villa Uni\u00f3n", 
        "admin": "Durango", 
        "country": "Mexico", 
        "population_proper": "", 
        "iso2": "MX", 
        "capital": "minor", 
        "lat": "23.974602", 
        "lng": "-104.047048", 
        "population": ""
    }, 
    {
        "city": "Villa Uni\u00f3n", 
        "admin": "Coahuila de Zaragoza", 
        "country": "Mexico", 
        "population_proper": "", 
        "iso2": "MX", 
        "capital": "minor", 
        "lat": "28.222278", 
        "lng": "-100.726243", 
        "population": ""
    }, 
    {
        "city": "Camar\u00f3n de Tejeda", 
        "admin": "Veracruz", 
        "country": "Mexico", 
        "population_proper": "", 
        "iso2": "MX", 
        "capital": "minor", 
        "lat": "19.021664", 
        "lng": "-96.615135", 
        "population": ""
    }, 
    {
        "city": "Almoloya", 
        "admin": "Hidalgo", 
        "country": "Mexico", 
        "population_proper": "", 
        "iso2": "MX", 
        "capital": "minor", 
        "lat": "19.704353", 
        "lng": "-98.403793", 
        "population": ""
    }, 
    {
        "city": "Albarradas", 
        "admin": "Oaxaca", 
        "country": "Mexico", 
        "population_proper": "", 
        "iso2": "MX", 
        "capital": "minor", 
        "lat": "17.067519", 
        "lng": "-96.200124", 
        "population": ""
    }, 
    {
        "city": "Puru\u00e1ndiro", 
        "admin": "M\u00e9xico", 
        "country": "Mexico", 
        "population_proper": "", 
        "iso2": "MX", 
        "capital": "minor", 
        "lat": "20.088865", 
        "lng": "-101.515786", 
        "population": ""
    }, 
    {
        "city": "San Mart\u00edn de las Pir\u00e1mides", 
        "admin": "M\u00e9xico", 
        "country": "Mexico", 
        "population_proper": "", 
        "iso2": "MX", 
        "capital": "minor", 
        "lat": "19.705818", 
        "lng": "-98.835536", 
        "population": ""
    }, 
    {
        "city": "Panab\u00e1", 
        "admin": "Yucat\u00e1n", 
        "country": "Mexico", 
        "population_proper": "", 
        "iso2": "MX", 
        "capital": "minor", 
        "lat": "21.295984", 
        "lng": "-88.269824", 
        "population": ""
    }, 
    {
        "city": "Chila de la Sal", 
        "admin": "Puebla", 
        "country": "Mexico", 
        "population_proper": "", 
        "iso2": "MX", 
        "capital": "minor", 
        "lat": "18.10975", 
        "lng": "-98.48574", 
        "population": ""
    }, 
    {
        "city": "Santiago Tenango", 
        "admin": "Oaxaca", 
        "country": "Mexico", 
        "population_proper": "", 
        "iso2": "MX", 
        "capital": "minor", 
        "lat": "17.324893", 
        "lng": "-97.004673", 
        "population": ""
    }, 
    {
        "city": "Fort\u00edn de las Flores", 
        "admin": "Veracruz", 
        "country": "Mexico", 
        "population_proper": "", 
        "iso2": "MX", 
        "capital": "minor", 
        "lat": "18.901328", 
        "lng": "-96.999663", 
        "population": ""
    }, 
    {
        "city": "Coyotepec", 
        "admin": "Morelos", 
        "country": "Mexico", 
        "population_proper": "", 
        "iso2": "MX", 
        "capital": "minor", 
        "lat": "19.777222", 
        "lng": "-99.212948", 
        "population": ""
    }, 
    {
        "city": "Parral", 
        "admin": "Chihuahua", 
        "country": "Mexico", 
        "population_proper": "", 
        "iso2": "MX", 
        "capital": "minor", 
        "lat": "26.930223", 
        "lng": "-105.6664", 
        "population": ""
    }, 
    {
        "city": "Ixtlahuac\u00e1n", 
        "admin": "Colima", 
        "country": "Mexico", 
        "population_proper": "", 
        "iso2": "MX", 
        "capital": "minor", 
        "lat": "19.001188", 
        "lng": "-103.736377", 
        "population": ""
    }, 
    {
        "city": "Ixtlahuaca", 
        "admin": "M\u00e9xico", 
        "country": "Mexico", 
        "population_proper": "", 
        "iso2": "MX", 
        "capital": "minor", 
        "lat": "19.568805", 
        "lng": "-99.766942", 
        "population": ""
    }, 
    {
        "city": "Valle de Allende", 
        "admin": "Chihuahua", 
        "country": "Mexico", 
        "population_proper": "", 
        "iso2": "MX", 
        "capital": "minor", 
        "lat": "26.935265", 
        "lng": "-105.392706", 
        "population": ""
    }, 
    {
        "city": "Salto de Agua", 
        "admin": "Chiapas", 
        "country": "Mexico", 
        "population_proper": "", 
        "iso2": "MX", 
        "capital": "minor", 
        "lat": "17.554353", 
        "lng": "-92.339409", 
        "population": ""
    }, 
    {
        "city": "Ciudad de Huitzuco", 
        "admin": "Guerrero", 
        "country": "Mexico", 
        "population_proper": "", 
        "iso2": "MX", 
        "capital": "minor", 
        "lat": "18.303337", 
        "lng": "-99.333757", 
        "population": ""
    }, 
    {
        "city": "Huixquilucan de Degollado", 
        "admin": "M\u00e9xico", 
        "country": "Mexico", 
        "population_proper": "", 
        "iso2": "MX", 
        "capital": "minor", 
        "lat": "19.360284", 
        "lng": "-99.349796", 
        "population": ""
    }, 
    {
        "city": "Huixt\u00e1n", 
        "admin": "Chiapas", 
        "country": "Mexico", 
        "population_proper": "", 
        "iso2": "MX", 
        "capital": "minor", 
        "lat": "16.710621", 
        "lng": "-92.45317", 
        "population": ""
    }, 
    {
        "city": "Zacatepec", 
        "admin": "Morelos", 
        "country": "Mexico", 
        "population_proper": "", 
        "iso2": "MX", 
        "capital": "minor", 
        "lat": "18.654088", 
        "lng": "-99.189815", 
        "population": ""
    }, 
    {
        "city": "Hecelchak\u00e1n", 
        "admin": "Campeche", 
        "country": "Mexico", 
        "population_proper": "", 
        "iso2": "MX", 
        "capital": "minor", 
        "lat": "20.177347", 
        "lng": "-90.133565", 
        "population": ""
    }, 
    {
        "city": "Emiliano Zapata", 
        "admin": "Chiapas", 
        "country": "Mexico", 
        "population_proper": "", 
        "iso2": "MX", 
        "capital": "minor", 
        "lat": "17.740583", 
        "lng": "-91.76635", 
        "population": ""
    }, 
    {
        "city": "Capulhuac", 
        "admin": "Morelos", 
        "country": "Mexico", 
        "population_proper": "", 
        "iso2": "MX", 
        "capital": "minor", 
        "lat": "19.193537", 
        "lng": "-99.465848", 
        "population": ""
    }, 
    {
        "city": "Numar\u00e1n", 
        "admin": "Michoac\u00e1n de Ocampo", 
        "country": "Mexico", 
        "population_proper": "", 
        "iso2": "MX", 
        "capital": "minor", 
        "lat": "20.255801", 
        "lng": "-101.949877", 
        "population": ""
    }, 
    {
        "city": "Ray\u00f3n", 
        "admin": "San Luis Potos\u00ed", 
        "country": "Mexico", 
        "population_proper": "", 
        "iso2": "MX", 
        "capital": "minor", 
        "lat": "21.843288", 
        "lng": "-99.642579", 
        "population": ""
    }, 
    {
        "city": "Rayones", 
        "admin": "Nuevo Le\u00f3n", 
        "country": "Mexico", 
        "population_proper": "", 
        "iso2": "MX", 
        "capital": "minor", 
        "lat": "25.017989", 
        "lng": "-100.073617", 
        "population": ""
    }, 
    {
        "city": "Piedras Negras", 
        "admin": "Coahuila de Zaragoza", 
        "country": "Mexico", 
        "population_proper": "", 
        "iso2": "MX", 
        "capital": "minor", 
        "lat": "28.69834", 
        "lng": "-100.530589", 
        "population": ""
    }, 
    {
        "city": "Cuetzala del Progreso", 
        "admin": "Guerrero", 
        "country": "Mexico", 
        "population_proper": "", 
        "iso2": "MX", 
        "capital": "minor", 
        "lat": "18.134719", 
        "lng": "-99.831901", 
        "population": ""
    }, 
    {
        "city": "Cuetzalan", 
        "admin": "Puebla", 
        "country": "Mexico", 
        "population_proper": "", 
        "iso2": "MX", 
        "capital": "minor", 
        "lat": "20.017655", 
        "lng": "-97.522773", 
        "population": ""
    }, 
    {
        "city": "Naupan", 
        "admin": "Hidalgo", 
        "country": "Mexico", 
        "population_proper": "", 
        "iso2": "MX", 
        "capital": "minor", 
        "lat": "20.226295", 
        "lng": "-98.120476", 
        "population": ""
    }, 
    {
        "city": "Cual\u00e1c", 
        "admin": "Guerrero", 
        "country": "Mexico", 
        "population_proper": "", 
        "iso2": "MX", 
        "capital": "minor", 
        "lat": "17.743502", 
        "lng": "-98.660394", 
        "population": ""
    }, 
    {
        "city": "Pihuamo", 
        "admin": "Jalisco", 
        "country": "Mexico", 
        "population_proper": "", 
        "iso2": "MX", 
        "capital": "minor", 
        "lat": "19.25374", 
        "lng": "-103.379172", 
        "population": ""
    }, 
    {
        "city": "Ocampo", 
        "admin": "Michoac\u00e1n de Ocampo", 
        "country": "Mexico", 
        "population_proper": "", 
        "iso2": "MX", 
        "capital": "minor", 
        "lat": "19.582412", 
        "lng": "-100.339133", 
        "population": ""
    }, 
    {
        "city": "Santa Mar\u00eda Ecatepec", 
        "admin": "Oaxaca", 
        "country": "Mexico", 
        "population_proper": "", 
        "iso2": "MX", 
        "capital": "minor", 
        "lat": "16.284985", 
        "lng": "-95.879967", 
        "population": ""
    }, 
    {
        "city": "Tlacuilotepec", 
        "admin": "Puebla", 
        "country": "Mexico", 
        "population_proper": "", 
        "iso2": "MX", 
        "capital": "minor", 
        "lat": "20.325737", 
        "lng": "-98.068673", 
        "population": ""
    }, 
    {
        "city": "Tlacuitapan", 
        "admin": "Jalisco", 
        "country": "Mexico", 
        "population_proper": "", 
        "iso2": "MX", 
        "capital": "minor", 
        "lat": "21.198289", 
        "lng": "-102.124161", 
        "population": ""
    }, 
    {
        "city": "San Gregorio Atzompa", 
        "admin": "Puebla", 
        "country": "Mexico", 
        "population_proper": "", 
        "iso2": "MX", 
        "capital": "minor", 
        "lat": "19.023486", 
        "lng": "-98.348217", 
        "population": ""
    }, 
    {
        "city": "La Manzanilla de la Paz", 
        "admin": "Jalisco", 
        "country": "Mexico", 
        "population_proper": "", 
        "iso2": "MX", 
        "capital": "minor", 
        "lat": "20.004951", 
        "lng": "-103.154558", 
        "population": ""
    }, 
    {
        "city": "Hueyotlipan", 
        "admin": "Tlaxcala", 
        "country": "Mexico", 
        "population_proper": "", 
        "iso2": "MX", 
        "capital": "minor", 
        "lat": "19.470876", 
        "lng": "-98.347784", 
        "population": ""
    }, 
    {
        "city": "Hueytamalco", 
        "admin": "Puebla", 
        "country": "Mexico", 
        "population_proper": "", 
        "iso2": "MX", 
        "capital": "minor", 
        "lat": "19.940287", 
        "lng": "-97.288475", 
        "population": ""
    }, 
    {
        "city": "Hueypoxtla", 
        "admin": "Morelos", 
        "country": "Mexico", 
        "population_proper": "", 
        "iso2": "MX", 
        "capital": "minor", 
        "lat": "19.91301", 
        "lng": "-99.07384", 
        "population": ""
    }, 
    {
        "city": "Amaxac de Guerrero", 
        "admin": "Tlaxcala", 
        "country": "Mexico", 
        "population_proper": "", 
        "iso2": "MX", 
        "capital": "minor", 
        "lat": "19.346608", 
        "lng": "-98.170567", 
        "population": ""
    }, 
    {
        "city": "Santiago Cacaloxtepec", 
        "admin": "Oaxaca", 
        "country": "Mexico", 
        "population_proper": "", 
        "iso2": "MX", 
        "capital": "minor", 
        "lat": "17.721579", 
        "lng": "-97.740439", 
        "population": ""
    }, 
    {
        "city": "Atlacomulco de Fabela", 
        "admin": "M\u00e9xico", 
        "country": "Mexico", 
        "population_proper": "", 
        "iso2": "MX", 
        "capital": "minor", 
        "lat": "19.799186", 
        "lng": "-99.875001", 
        "population": ""
    }, 
    {
        "city": "San Sebastian Teitipac", 
        "admin": "Oaxaca", 
        "country": "Mexico", 
        "population_proper": "", 
        "iso2": "MX", 
        "capital": "minor", 
        "lat": "16.95192", 
        "lng": "-96.61427", 
        "population": ""
    }, 
    {
        "city": "Ocu\u00edlan de Arteaga", 
        "admin": "M\u00e9xico", 
        "country": "Mexico", 
        "population_proper": "", 
        "iso2": "MX", 
        "capital": "minor", 
        "lat": "18.977843", 
        "lng": "-99.419863", 
        "population": ""
    }, 
    {
        "city": "Ocuituco", 
        "admin": "Morelos", 
        "country": "Mexico", 
        "population_proper": "", 
        "iso2": "MX", 
        "capital": "minor", 
        "lat": "18.87731", 
        "lng": "-98.773234", 
        "population": ""
    }, 
    {
        "city": "Almoloya del R\u00edo", 
        "admin": "Morelos", 
        "country": "Mexico", 
        "population_proper": "", 
        "iso2": "MX", 
        "capital": "minor", 
        "lat": "19.160458", 
        "lng": "-99.487395", 
        "population": ""
    }, 
    {
        "city": "Chuc\u00e1ndiro", 
        "admin": "Michoac\u00e1n de Ocampo", 
        "country": "Mexico", 
        "population_proper": "", 
        "iso2": "MX", 
        "capital": "minor", 
        "lat": "19.900077", 
        "lng": "-101.333797", 
        "population": ""
    }, 
    {
        "city": "Nopaluc\u00e1n", 
        "admin": "Puebla", 
        "country": "Mexico", 
        "population_proper": "", 
        "iso2": "MX", 
        "capital": "minor", 
        "lat": "19.218397", 
        "lng": "-97.822722", 
        "population": ""
    }, 
    {
        "city": "Villa de Zaachila", 
        "admin": "Oaxaca", 
        "country": "Mexico", 
        "population_proper": "", 
        "iso2": "MX", 
        "capital": "minor", 
        "lat": "16.95098", 
        "lng": "-96.74938", 
        "population": ""
    }, 
    {
        "city": "Ixil", 
        "admin": "Yucat\u00e1n", 
        "country": "Mexico", 
        "population_proper": "", 
        "iso2": "MX", 
        "capital": "minor", 
        "lat": "21.15235", 
        "lng": "-89.481816", 
        "population": ""
    }, 
    {
        "city": "Pinotepa de Don Luis", 
        "admin": "Oaxaca", 
        "country": "Mexico", 
        "population_proper": "", 
        "iso2": "MX", 
        "capital": "minor", 
        "lat": "16.427157", 
        "lng": "-97.976777", 
        "population": ""
    }, 
    {
        "city": "San Diego de la Uni\u00f3n", 
        "admin": "Guanajuato", 
        "country": "Mexico", 
        "population_proper": "", 
        "iso2": "MX", 
        "capital": "minor", 
        "lat": "21.467486", 
        "lng": "-100.873104", 
        "population": ""
    }, 
    {
        "city": "San Andr\u00e9s Huaxpaltepec", 
        "admin": "Oaxaca", 
        "country": "Mexico", 
        "population_proper": "", 
        "iso2": "MX", 
        "capital": "minor", 
        "lat": "16.329515", 
        "lng": "-97.916471", 
        "population": ""
    }, 
    {
        "city": "San Andr\u00e9s Calpan", 
        "admin": "Puebla", 
        "country": "Mexico", 
        "population_proper": "", 
        "iso2": "MX", 
        "capital": "minor", 
        "lat": "19.103564", 
        "lng": "-98.461876", 
        "population": ""
    }, 
    {
        "city": "Perote", 
        "admin": "Veracruz", 
        "country": "Mexico", 
        "population_proper": "", 
        "iso2": "MX", 
        "capital": "minor", 
        "lat": "19.562325", 
        "lng": "-97.242351", 
        "population": ""
    }, 
    {
        "city": "Doctor Coss", 
        "admin": "Nuevo Le\u00f3n", 
        "country": "Mexico", 
        "population_proper": "", 
        "iso2": "MX", 
        "capital": "minor", 
        "lat": "25.924921", 
        "lng": "-99.183161", 
        "population": ""
    }, 
    {
        "city": "Ajalpan", 
        "admin": "Puebla", 
        "country": "Mexico", 
        "population_proper": "", 
        "iso2": "MX", 
        "capital": "minor", 
        "lat": "18.379084", 
        "lng": "-97.258668", 
        "population": ""
    }, 
    {
        "city": "Zempoala", 
        "admin": "Hidalgo", 
        "country": "Mexico", 
        "population_proper": "", 
        "iso2": "MX", 
        "capital": "minor", 
        "lat": "19.915872", 
        "lng": "-98.666005", 
        "population": ""
    }, 
    {
        "city": "Tecolotl\u00e1n", 
        "admin": "Jalisco", 
        "country": "Mexico", 
        "population_proper": "", 
        "iso2": "MX", 
        "capital": "minor", 
        "lat": "20.201671", 
        "lng": "-104.047484", 
        "population": ""
    }, 
    {
        "city": "Uni\u00f3n de Tula", 
        "admin": "Jalisco", 
        "country": "Mexico", 
        "population_proper": "", 
        "iso2": "MX", 
        "capital": "minor", 
        "lat": "19.956461", 
        "lng": "-104.268053", 
        "population": ""
    }, 
    {
        "city": "Uni\u00f3n de San Antonio", 
        "admin": "Jalisco", 
        "country": "Mexico", 
        "population_proper": "", 
        "iso2": "MX", 
        "capital": "minor", 
        "lat": "21.127136", 
        "lng": "-102.006188", 
        "population": ""
    }, 
    {
        "city": "Ixpantepec Nieves", 
        "admin": "Oaxaca", 
        "country": "Mexico", 
        "population_proper": "", 
        "iso2": "MX", 
        "capital": "minor", 
        "lat": "17.506902", 
        "lng": "-98.042643", 
        "population": ""
    }, 
    {
        "city": "San Sebasti\u00e1n Nicananduta", 
        "admin": "Oaxaca", 
        "country": "Mexico", 
        "population_proper": "", 
        "iso2": "MX", 
        "capital": "minor", 
        "lat": "17.518278", 
        "lng": "-97.683497", 
        "population": ""
    }, 
    {
        "city": "Zacazonapan", 
        "admin": "M\u00e9xico", 
        "country": "Mexico", 
        "population_proper": "", 
        "iso2": "MX", 
        "capital": "minor", 
        "lat": "19.073174", 
        "lng": "-100.255154", 
        "population": ""
    }, 
    {
        "city": "Tequila", 
        "admin": "Jalisco", 
        "country": "Mexico", 
        "population_proper": "", 
        "iso2": "MX", 
        "capital": "minor", 
        "lat": "20.882051", 
        "lng": "-103.835994", 
        "population": ""
    }, 
    {
        "city": "San Raymundo Jalpam", 
        "admin": "Oaxaca", 
        "country": "Mexico", 
        "population_proper": "", 
        "iso2": "MX", 
        "capital": "minor", 
        "lat": "16.97164", 
        "lng": "-96.75699", 
        "population": ""
    }, 
    {
        "city": "Magdalena Mixtepec", 
        "admin": "Oaxaca", 
        "country": "Mexico", 
        "population_proper": "", 
        "iso2": "MX", 
        "capital": "minor", 
        "lat": "16.896592", 
        "lng": "-96.906183", 
        "population": ""
    }, 
    {
        "city": "Magdalena Jaltepec", 
        "admin": "Oaxaca", 
        "country": "Mexico", 
        "population_proper": "", 
        "iso2": "MX", 
        "capital": "minor", 
        "lat": "17.323176", 
        "lng": "-97.221216", 
        "population": ""
    }, 
    {
        "city": "Emiliano Zapata", 
        "admin": "Tlaxcala", 
        "country": "Mexico", 
        "population_proper": "", 
        "iso2": "MX", 
        "capital": "minor", 
        "lat": "19.558514", 
        "lng": "-97.917902", 
        "population": ""
    }, 
    {
        "city": "Xicotl\u00e1n", 
        "admin": "Puebla", 
        "country": "Mexico", 
        "population_proper": "", 
        "iso2": "MX", 
        "capital": "minor", 
        "lat": "18.059185", 
        "lng": "-98.52457", 
        "population": ""
    }, 
    {
        "city": "Santiago", 
        "admin": "Nuevo Le\u00f3n", 
        "country": "Mexico", 
        "population_proper": "", 
        "iso2": "MX", 
        "capital": "minor", 
        "lat": "25.42533", 
        "lng": "-100.152046", 
        "population": ""
    }, 
    {
        "city": "Santa Mar\u00eda Sola", 
        "admin": "Oaxaca", 
        "country": "Mexico", 
        "population_proper": "", 
        "iso2": "MX", 
        "capital": "minor", 
        "lat": "16.566154", 
        "lng": "-97.01297", 
        "population": ""
    }, 
    {
        "city": "Huehuetla", 
        "admin": "Puebla", 
        "country": "Mexico", 
        "population_proper": "", 
        "iso2": "MX", 
        "capital": "minor", 
        "lat": "20.105775", 
        "lng": "-97.625173", 
        "population": ""
    }, 
    {
        "city": "Huehuetoca", 
        "admin": "Hidalgo", 
        "country": "Mexico", 
        "population_proper": "", 
        "iso2": "MX", 
        "capital": "minor", 
        "lat": "19.848358", 
        "lng": "-99.205549", 
        "population": ""
    }, 
    {
        "city": "Arteaga", 
        "admin": "Michoac\u00e1n de Ocampo", 
        "country": "Mexico", 
        "population_proper": "", 
        "iso2": "MX", 
        "capital": "minor", 
        "lat": "18.357788", 
        "lng": "-102.291217", 
        "population": ""
    }, 
    {
        "city": "Ixcapuzalco", 
        "admin": "Guerrero", 
        "country": "Mexico", 
        "population_proper": "", 
        "iso2": "MX", 
        "capital": "minor", 
        "lat": "18.512041", 
        "lng": "-99.887549", 
        "population": ""
    }, 
    {
        "city": "Ixcateopan de Cuauht\u00e9moc", 
        "admin": "Guerrero", 
        "country": "Mexico", 
        "population_proper": "", 
        "iso2": "MX", 
        "capital": "minor", 
        "lat": "18.50274", 
        "lng": "-99.792004", 
        "population": ""
    }, 
    {
        "city": "San Juan Chilateca", 
        "admin": "Oaxaca", 
        "country": "Mexico", 
        "population_proper": "", 
        "iso2": "MX", 
        "capital": "minor", 
        "lat": "16.83042", 
        "lng": "-96.66915", 
        "population": ""
    }, 
    {
        "city": "San Carlos Yautepec", 
        "admin": "Oaxaca", 
        "country": "Mexico", 
        "population_proper": "", 
        "iso2": "MX", 
        "capital": "minor", 
        "lat": "16.496992", 
        "lng": "-96.10648", 
        "population": ""
    }, 
    {
        "city": "Tixpehual", 
        "admin": "Yucat\u00e1n", 
        "country": "Mexico", 
        "population_proper": "", 
        "iso2": "MX", 
        "capital": "minor", 
        "lat": "20.97739", 
        "lng": "-89.442034", 
        "population": ""
    }, 
    {
        "city": "Texcalyacac", 
        "admin": "Morelos", 
        "country": "Mexico", 
        "population_proper": "", 
        "iso2": "MX", 
        "capital": "minor", 
        "lat": "19.132529", 
        "lng": "-99.501628", 
        "population": ""
    }, 
    {
        "city": "Jalpan", 
        "admin": "Quer\u00e9taro", 
        "country": "Mexico", 
        "population_proper": "", 
        "iso2": "MX", 
        "capital": "minor", 
        "lat": "21.21802", 
        "lng": "-99.471517", 
        "population": ""
    }, 
    {
        "city": "Jaltenco", 
        "admin": "Morelos", 
        "country": "Mexico", 
        "population_proper": "", 
        "iso2": "MX", 
        "capital": "minor", 
        "lat": "19.753992", 
        "lng": "-99.093665", 
        "population": ""
    }, 
    {
        "city": "Tarandacuao", 
        "admin": "Guanajuato", 
        "country": "Mexico", 
        "population_proper": "", 
        "iso2": "MX", 
        "capital": "minor", 
        "lat": "20.000939", 
        "lng": "-100.51856", 
        "population": ""
    }, 
    {
        "city": "Chiautla", 
        "admin": "M\u00e9xico", 
        "country": "Mexico", 
        "population_proper": "", 
        "iso2": "MX", 
        "capital": "minor", 
        "lat": "19.549419", 
        "lng": "-98.879666", 
        "population": ""
    }, 
    {
        "city": "Sitio de Xitlapehua", 
        "admin": "Oaxaca", 
        "country": "Mexico", 
        "population_proper": "", 
        "iso2": "MX", 
        "capital": "minor", 
        "lat": "16.35139", 
        "lng": "-96.53215", 
        "population": ""
    }, 
    {
        "city": "Santiago Nund\u00edche", 
        "admin": "Oaxaca", 
        "country": "Mexico", 
        "population_proper": "", 
        "iso2": "MX", 
        "capital": "minor", 
        "lat": "17.331362", 
        "lng": "-97.673918", 
        "population": ""
    }, 
    {
        "city": "Santiago Nejapilla", 
        "admin": "Oaxaca", 
        "country": "Mexico", 
        "population_proper": "", 
        "iso2": "MX", 
        "capital": "minor", 
        "lat": "17.419834", 
        "lng": "-97.374109", 
        "population": ""
    }, 
    {
        "city": "Santiago Nuyo\u00f3", 
        "admin": "Oaxaca", 
        "country": "Mexico", 
        "population_proper": "", 
        "iso2": "MX", 
        "capital": "minor", 
        "lat": "17.014494", 
        "lng": "-97.766587", 
        "population": ""
    }, 
    {
        "city": "Tlapa de Comonfort", 
        "admin": "Guerrero", 
        "country": "Mexico", 
        "population_proper": "", 
        "iso2": "MX", 
        "capital": "minor", 
        "lat": "17.545279", 
        "lng": "-98.575989", 
        "population": ""
    }, 
    {
        "city": "Tlapacoyan", 
        "admin": "Veracruz", 
        "country": "Mexico", 
        "population_proper": "", 
        "iso2": "MX", 
        "capital": "minor", 
        "lat": "19.962679", 
        "lng": "-97.211413", 
        "population": ""
    }, 
    {
        "city": "Santo Domingo Yodohino", 
        "admin": "Oaxaca", 
        "country": "Mexico", 
        "population_proper": "", 
        "iso2": "MX", 
        "capital": "minor", 
        "lat": "17.616937", 
        "lng": "-97.682888", 
        "population": ""
    }, 
    {
        "city": "Amatenango de la Frontera", 
        "admin": "Chiapas", 
        "country": "Mexico", 
        "population_proper": "", 
        "iso2": "MX", 
        "capital": "minor", 
        "lat": "15.434383", 
        "lng": "-92.115695", 
        "population": ""
    }, 
    {
        "city": "Amatenango del Valle", 
        "admin": "Chiapas", 
        "country": "Mexico", 
        "population_proper": "", 
        "iso2": "MX", 
        "capital": "minor", 
        "lat": "16.528487", 
        "lng": "-92.431268", 
        "population": ""
    }, 
    {
        "city": "Jamiltepec", 
        "admin": "Oaxaca", 
        "country": "Mexico", 
        "population_proper": "", 
        "iso2": "MX", 
        "capital": "minor", 
        "lat": "16.282584", 
        "lng": "-97.824461", 
        "population": ""
    }, 
    {
        "city": "Santiago Lalopa", 
        "admin": "Oaxaca", 
        "country": "Mexico", 
        "population_proper": "", 
        "iso2": "MX", 
        "capital": "minor", 
        "lat": "17.417856", 
        "lng": "-96.248927", 
        "population": ""
    }, 
    {
        "city": "P\u00e9njamo", 
        "admin": "Guanajuato", 
        "country": "Mexico", 
        "population_proper": "", 
        "iso2": "MX", 
        "capital": "minor", 
        "lat": "20.431078", 
        "lng": "-101.722607", 
        "population": ""
    }, 
    {
        "city": "Penjamillo de Degollado", 
        "admin": "Michoac\u00e1n de Ocampo", 
        "country": "Mexico", 
        "population_proper": "", 
        "iso2": "MX", 
        "capital": "minor", 
        "lat": "20.1041", 
        "lng": "-101.934438", 
        "population": ""
    }, 
    {
        "city": "Altotonga", 
        "admin": "Veracruz", 
        "country": "Mexico", 
        "population_proper": "", 
        "iso2": "MX", 
        "capital": "minor", 
        "lat": "19.766132", 
        "lng": "-97.245138", 
        "population": ""
    }, 
    {
        "city": "Santa Gertrudis", 
        "admin": "Oaxaca", 
        "country": "Mexico", 
        "population_proper": "", 
        "iso2": "MX", 
        "capital": "minor", 
        "lat": "16.7858", 
        "lng": "-96.80024", 
        "population": ""
    }, 
    {
        "city": "Jalcomulco", 
        "admin": "Veracruz", 
        "country": "Mexico", 
        "population_proper": "", 
        "iso2": "MX", 
        "capital": "minor", 
        "lat": "19.331848", 
        "lng": "-96.762495", 
        "population": ""
    }, 
    {
        "city": "Tetipac", 
        "admin": "Guerrero", 
        "country": "Mexico", 
        "population_proper": "", 
        "iso2": "MX", 
        "capital": "minor", 
        "lat": "18.648346", 
        "lng": "-99.647285", 
        "population": ""
    }, 
    {
        "city": "Mart\u00ednez de la Torre", 
        "admin": "Veracruz", 
        "country": "Mexico", 
        "population_proper": "", 
        "iso2": "MX", 
        "capital": "minor", 
        "lat": "20.07082", 
        "lng": "-97.060782", 
        "population": ""
    }, 
    {
        "city": "Teojomulco", 
        "admin": "Oaxaca", 
        "country": "Mexico", 
        "population_proper": "", 
        "iso2": "MX", 
        "capital": "minor", 
        "lat": "16.590319", 
        "lng": "-97.224934", 
        "population": ""
    }, 
    {
        "city": "Kanas\u00edn", 
        "admin": "Yucat\u00e1n", 
        "country": "Mexico", 
        "population_proper": "", 
        "iso2": "MX", 
        "capital": "minor", 
        "lat": "20.93482", 
        "lng": "-89.558714", 
        "population": ""
    }, 
    {
        "city": "Coatzingo", 
        "admin": "Puebla", 
        "country": "Mexico", 
        "population_proper": "", 
        "iso2": "MX", 
        "capital": "minor", 
        "lat": "18.611988", 
        "lng": "-98.172674", 
        "population": ""
    }, 
    {
        "city": "Xochiltepec", 
        "admin": "Puebla", 
        "country": "Mexico", 
        "population_proper": "", 
        "iso2": "MX", 
        "capital": "minor", 
        "lat": "18.650946", 
        "lng": "-98.344503", 
        "population": ""
    }, 
    {
        "city": "Jiutepec", 
        "admin": "Morelos", 
        "country": "Mexico", 
        "population_proper": "", 
        "iso2": "MX", 
        "capital": "minor", 
        "lat": "18.876449", 
        "lng": "-99.175822", 
        "population": ""
    }, 
    {
        "city": "Bochil", 
        "admin": "Chiapas", 
        "country": "Mexico", 
        "population_proper": "", 
        "iso2": "MX", 
        "capital": "minor", 
        "lat": "16.99625", 
        "lng": "-92.892181", 
        "population": ""
    }, 
    {
        "city": "Villa Victoria", 
        "admin": "M\u00e9xico", 
        "country": "Mexico", 
        "population_proper": "", 
        "iso2": "MX", 
        "capital": "minor", 
        "lat": "19.436927", 
        "lng": "-99.995885", 
        "population": ""
    }, 
    {
        "city": "Nezahualc\u00f3yotl", 
        "admin": "M\u00e9xico", 
        "country": "Mexico", 
        "population_proper": "", 
        "iso2": "MX", 
        "capital": "minor", 
        "lat": "19.387627", 
        "lng": "-98.992638", 
        "population": ""
    }, 
    {
        "city": "Totolac", 
        "admin": "Tlaxcala", 
        "country": "Mexico", 
        "population_proper": "", 
        "iso2": "MX", 
        "capital": "minor", 
        "lat": "19.325796", 
        "lng": "-98.258337", 
        "population": ""
    }, 
    {
        "city": "Yecuatla", 
        "admin": "Veracruz", 
        "country": "Mexico", 
        "population_proper": "", 
        "iso2": "MX", 
        "capital": "minor", 
        "lat": "19.866142", 
        "lng": "-96.778355", 
        "population": ""
    }, 
    {
        "city": "Apetatitl\u00e1n Antonio Carbajal", 
        "admin": "Tlaxcala", 
        "country": "Mexico", 
        "population_proper": "", 
        "iso2": "MX", 
        "capital": "minor", 
        "lat": "19.33622", 
        "lng": "-98.179123", 
        "population": ""
    }, 
    {
        "city": "Iz\u00facar de Matamoros", 
        "admin": "Puebla", 
        "country": "Mexico", 
        "population_proper": "", 
        "iso2": "MX", 
        "capital": "minor", 
        "lat": "18.601566", 
        "lng": "-98.461521", 
        "population": ""
    }, 
    {
        "city": "Tlacolula de Matamoros", 
        "admin": "Oaxaca", 
        "country": "Mexico", 
        "population_proper": "", 
        "iso2": "MX", 
        "capital": "minor", 
        "lat": "16.954711", 
        "lng": "-96.475901", 
        "population": ""
    }, 
    {
        "city": "Emiliano Zapata", 
        "admin": "Morelos", 
        "country": "Mexico", 
        "population_proper": "", 
        "iso2": "MX", 
        "capital": "minor", 
        "lat": "18.840654", 
        "lng": "-99.184632", 
        "population": ""
    }, 
    {
        "city": "Sayula de Alem\u00e1n", 
        "admin": "Veracruz", 
        "country": "Mexico", 
        "population_proper": "", 
        "iso2": "MX", 
        "capital": "minor", 
        "lat": "17.881911", 
        "lng": "-94.959862", 
        "population": ""
    }, 
    {
        "city": "San Juanito de Escobedo", 
        "admin": "Jalisco", 
        "country": "Mexico", 
        "population_proper": "", 
        "iso2": "MX", 
        "capital": "minor", 
        "lat": "20.794365", 
        "lng": "-104.002454", 
        "population": ""
    }, 
    {
        "city": "Santa Mar\u00eda Mixtequilla", 
        "admin": "Oaxaca", 
        "country": "Mexico", 
        "population_proper": "", 
        "iso2": "MX", 
        "capital": "minor", 
        "lat": "16.37496", 
        "lng": "-95.26034", 
        "population": ""
    }, 
    {
        "city": "Xico", 
        "admin": "Veracruz", 
        "country": "Mexico", 
        "population_proper": "", 
        "iso2": "MX", 
        "capital": "minor", 
        "lat": "19.421785", 
        "lng": "-97.008192", 
        "population": ""
    }, 
    {
        "city": "Rosamorada", 
        "admin": "Nayarit", 
        "country": "Mexico", 
        "population_proper": "", 
        "iso2": "MX", 
        "capital": "minor", 
        "lat": "22.12208", 
        "lng": "-105.2064", 
        "population": ""
    }, 
    {
        "city": "Cuapiaxtla", 
        "admin": "Tlaxcala", 
        "country": "Mexico", 
        "population_proper": "", 
        "iso2": "MX", 
        "capital": "minor", 
        "lat": "19.295882", 
        "lng": "-97.7688", 
        "population": ""
    }, 
    {
        "city": "Cuanal\u00e1", 
        "admin": "Puebla", 
        "country": "Mexico", 
        "population_proper": "", 
        "iso2": "MX", 
        "capital": "minor", 
        "lat": "19.109174", 
        "lng": "-98.327876", 
        "population": ""
    }, 
    {
        "city": "Montemorelos", 
        "admin": "Nuevo Le\u00f3n", 
        "country": "Mexico", 
        "population_proper": "", 
        "iso2": "MX", 
        "capital": "minor", 
        "lat": "25.189095", 
        "lng": "-99.828655", 
        "population": ""
    }, 
    {
        "city": "Santiago Tangamandapio", 
        "admin": "M\u00e9xico", 
        "country": "Mexico", 
        "population_proper": "", 
        "iso2": "MX", 
        "capital": "minor", 
        "lat": "19.955681", 
        "lng": "-102.435457", 
        "population": ""
    }, 
    {
        "city": "San Vicente Nu\u00f1u", 
        "admin": "Oaxaca", 
        "country": "Mexico", 
        "population_proper": "", 
        "iso2": "MX", 
        "capital": "minor", 
        "lat": "17.456479", 
        "lng": "-97.44319", 
        "population": ""
    }, 
    {
        "city": "Temoac", 
        "admin": "Morelos", 
        "country": "Mexico", 
        "population_proper": "", 
        "iso2": "MX", 
        "capital": "minor", 
        "lat": "18.773859", 
        "lng": "-98.778098", 
        "population": ""
    }, 
    {
        "city": "Cuilapan de Guerrero", 
        "admin": "Oaxaca", 
        "country": "Mexico", 
        "population_proper": "", 
        "iso2": "MX", 
        "capital": "minor", 
        "lat": "16.977557", 
        "lng": "-96.780814", 
        "population": ""
    }, 
    {
        "city": "Valle de Ju\u00e1rez", 
        "admin": "Jalisco", 
        "country": "Mexico", 
        "population_proper": "", 
        "iso2": "MX", 
        "capital": "minor", 
        "lat": "19.93248", 
        "lng": "-102.943582", 
        "population": ""
    }, 
    {
        "city": "Santa Mar\u00eda Lachix\u00edo", 
        "admin": "Oaxaca", 
        "country": "Mexico", 
        "population_proper": "", 
        "iso2": "MX", 
        "capital": "minor", 
        "lat": "16.728095", 
        "lng": "-97.019205", 
        "population": ""
    }, 
    {
        "city": "Totolapa", 
        "admin": "Chiapas", 
        "country": "Mexico", 
        "population_proper": "", 
        "iso2": "MX", 
        "capital": "minor", 
        "lat": "16.543567", 
        "lng": "-92.680191", 
        "population": ""
    }, 
    {
        "city": "Teotitl\u00e1n del Valle", 
        "admin": "Oaxaca", 
        "country": "Mexico", 
        "population_proper": "", 
        "iso2": "MX", 
        "capital": "minor", 
        "lat": "17.029754", 
        "lng": "-96.519257", 
        "population": ""
    }, 
    {
        "city": "Teopisca", 
        "admin": "Chiapas", 
        "country": "Mexico", 
        "population_proper": "", 
        "iso2": "MX", 
        "capital": "minor", 
        "lat": "16.541821", 
        "lng": "-92.474047", 
        "population": ""
    }, 
    {
        "city": "Atlatlahucan", 
        "admin": "Morelos", 
        "country": "Mexico", 
        "population_proper": "", 
        "iso2": "MX", 
        "capital": "minor", 
        "lat": "18.934132", 
        "lng": "-98.898196", 
        "population": ""
    }, 
    {
        "city": "Atlautla", 
        "admin": "M\u00e9xico", 
        "country": "Mexico", 
        "population_proper": "", 
        "iso2": "MX", 
        "capital": "minor", 
        "lat": "19.029204", 
        "lng": "-98.778756", 
        "population": ""
    }, 
    {
        "city": "Totolapan", 
        "admin": "Morelos", 
        "country": "Mexico", 
        "population_proper": "", 
        "iso2": "MX", 
        "capital": "minor", 
        "lat": "18.986548", 
        "lng": "-98.919225", 
        "population": ""
    }, 
    {
        "city": "Ocoyoacac", 
        "admin": "Morelos", 
        "country": "Mexico", 
        "population_proper": "", 
        "iso2": "MX", 
        "capital": "minor", 
        "lat": "19.271271", 
        "lng": "-99.457871", 
        "population": ""
    }, 
    {
        "city": "Ocotl\u00e1n de Morelos", 
        "admin": "Oaxaca", 
        "country": "Mexico", 
        "population_proper": "", 
        "iso2": "MX", 
        "capital": "minor", 
        "lat": "16.79151", 
        "lng": "-96.674548", 
        "population": ""
    }, 
    {
        "city": "Tecoanapa", 
        "admin": "Guerrero", 
        "country": "Mexico", 
        "population_proper": "", 
        "iso2": "MX", 
        "capital": "minor", 
        "lat": "16.987708", 
        "lng": "-99.260019", 
        "population": ""
    }, 
    {
        "city": "Tlacolulan", 
        "admin": "Veracruz", 
        "country": "Mexico", 
        "population_proper": "", 
        "iso2": "MX", 
        "capital": "minor", 
        "lat": "19.666873", 
        "lng": "-97.00194", 
        "population": ""
    }, 
    {
        "city": "Yur\u00e9cuaro", 
        "admin": "Michoac\u00e1n de Ocampo", 
        "country": "Mexico", 
        "population_proper": "", 
        "iso2": "MX", 
        "capital": "minor", 
        "lat": "20.336059", 
        "lng": "-102.283823", 
        "population": ""
    }, 
    {
        "city": "Santiago Comaltepec", 
        "admin": "Oaxaca", 
        "country": "Mexico", 
        "population_proper": "", 
        "iso2": "MX", 
        "capital": "minor", 
        "lat": "17.56547", 
        "lng": "-96.54873", 
        "population": ""
    }, 
    {
        "city": "Santiago Chazumba", 
        "admin": "Oaxaca", 
        "country": "Mexico", 
        "population_proper": "", 
        "iso2": "MX", 
        "capital": "minor", 
        "lat": "18.190117", 
        "lng": "-97.679831", 
        "population": ""
    }, 
    {
        "city": "Empalme", 
        "admin": "Sonora", 
        "country": "Mexico", 
        "population_proper": "", 
        "iso2": "MX", 
        "capital": "minor", 
        "lat": "27.963395", 
        "lng": "-110.809114", 
        "population": ""
    }, 
    {
        "city": "Santa Ana del Valle", 
        "admin": "Oaxaca", 
        "country": "Mexico", 
        "population_proper": "", 
        "iso2": "MX", 
        "capital": "minor", 
        "lat": "16.994882", 
        "lng": "-96.471122", 
        "population": ""
    }, 
    {
        "city": "San Crist\u00f3bal Amoltepec", 
        "admin": "Oaxaca", 
        "country": "Mexico", 
        "population_proper": "", 
        "iso2": "MX", 
        "capital": "minor", 
        "lat": "17.284283", 
        "lng": "-97.572157", 
        "population": ""
    }, 
    {
        "city": "San Crist\u00f3bal Amatl\u00e1n", 
        "admin": "Oaxaca", 
        "country": "Mexico", 
        "population_proper": "", 
        "iso2": "MX", 
        "capital": "minor", 
        "lat": "16.317134", 
        "lng": "-96.40785", 
        "population": ""
    }, 
    {
        "city": "Santa Ana", 
        "admin": "Sonora", 
        "country": "Mexico", 
        "population_proper": "", 
        "iso2": "MX", 
        "capital": "minor", 
        "lat": "30.540753", 
        "lng": "-111.118884", 
        "population": ""
    }, 
    {
        "city": "Tuxpan", 
        "admin": "Michoac\u00e1n de Ocampo", 
        "country": "Mexico", 
        "population_proper": "", 
        "iso2": "MX", 
        "capital": "minor", 
        "lat": "19.567879", 
        "lng": "-100.461888", 
        "population": ""
    }, 
    {
        "city": "Santa Cruz Xitla", 
        "admin": "Oaxaca", 
        "country": "Mexico", 
        "population_proper": "", 
        "iso2": "MX", 
        "capital": "minor", 
        "lat": "16.323207", 
        "lng": "-96.673695", 
        "population": ""
    }, 
    {
        "city": "Jer\u00e9cuaro", 
        "admin": "Guanajuato", 
        "country": "Mexico", 
        "population_proper": "", 
        "iso2": "MX", 
        "capital": "minor", 
        "lat": "20.154667", 
        "lng": "-100.508596", 
        "population": ""
    }, 
    {
        "city": "Santa Isabel Cholula", 
        "admin": "Puebla", 
        "country": "Mexico", 
        "population_proper": "", 
        "iso2": "MX", 
        "capital": "minor", 
        "lat": "18.994379", 
        "lng": "-98.379467", 
        "population": ""
    }, 
    {
        "city": "Santa Cruz Mixtepec", 
        "admin": "Oaxaca", 
        "country": "Mexico", 
        "population_proper": "", 
        "iso2": "MX", 
        "capital": "minor", 
        "lat": "16.79283", 
        "lng": "-96.880717", 
        "population": ""
    }, 
    {
        "city": "Santa Cruz Tlaxcala", 
        "admin": "Tlaxcala", 
        "country": "Mexico", 
        "population_proper": "", 
        "iso2": "MX", 
        "capital": "minor", 
        "lat": "19.354676", 
        "lng": "-98.150756", 
        "population": ""
    }, 
    {
        "city": "Tulancingo", 
        "admin": "Hidalgo", 
        "country": "Mexico", 
        "population_proper": "", 
        "iso2": "MX", 
        "capital": "minor", 
        "lat": "20.083553", 
        "lng": "-98.362879", 
        "population": ""
    }, 
    {
        "city": "Santa Mar\u00eda Tonameca", 
        "admin": "Oaxaca", 
        "country": "Mexico", 
        "population_proper": "", 
        "iso2": "MX", 
        "capital": "minor", 
        "lat": "15.748048", 
        "lng": "-96.547045", 
        "population": ""
    }, 
    {
        "city": "Tlachichilco", 
        "admin": "Oaxaca", 
        "country": "Mexico", 
        "population_proper": "", 
        "iso2": "MX", 
        "capital": "minor", 
        "lat": "17.622202", 
        "lng": "-98.343124", 
        "population": ""
    }, 
    {
        "city": "Valle Nacional", 
        "admin": "Oaxaca", 
        "country": "Mexico", 
        "population_proper": "", 
        "iso2": "MX", 
        "capital": "minor", 
        "lat": "17.775787", 
        "lng": "-96.301737", 
        "population": ""
    }, 
    {
        "city": "Singuilucan", 
        "admin": "Hidalgo", 
        "country": "Mexico", 
        "population_proper": "", 
        "iso2": "MX", 
        "capital": "minor", 
        "lat": "19.968745", 
        "lng": "-98.519349", 
        "population": ""
    }, 
    {
        "city": "Texistepec", 
        "admin": "Veracruz", 
        "country": "Mexico", 
        "population_proper": "", 
        "iso2": "MX", 
        "capital": "minor", 
        "lat": "17.89476", 
        "lng": "-94.817107", 
        "population": ""
    }, 
    {
        "city": "Texcoco", 
        "admin": "M\u00e9xico", 
        "country": "Mexico", 
        "population_proper": "", 
        "iso2": "MX", 
        "capital": "minor", 
        "lat": "19.511944", 
        "lng": "-98.882928", 
        "population": ""
    }, 
    {
        "city": "Rafael J. Garc\u00eda", 
        "admin": "Puebla", 
        "country": "Mexico", 
        "population_proper": "", 
        "iso2": "MX", 
        "capital": "minor", 
        "lat": "19.254133", 
        "lng": "-97.183152", 
        "population": ""
    }, 
    {
        "city": "Tepecoacuilco de Trujano", 
        "admin": "Guerrero", 
        "country": "Mexico", 
        "population_proper": "", 
        "iso2": "MX", 
        "capital": "minor", 
        "lat": "18.287498", 
        "lng": "-99.464232", 
        "population": ""
    }, 
    {
        "city": "Tepechitl\u00e1n", 
        "admin": "Zacatecas", 
        "country": "Mexico", 
        "population_proper": "", 
        "iso2": "MX", 
        "capital": "minor", 
        "lat": "21.670633", 
        "lng": "-103.326403", 
        "population": ""
    }, 
    {
        "city": "Tumbiscat\u00edo de Ruiz", 
        "admin": "Michoac\u00e1n de Ocampo", 
        "country": "Mexico", 
        "population_proper": "", 
        "iso2": "MX", 
        "capital": "minor", 
        "lat": "18.526666", 
        "lng": "-102.378226", 
        "population": ""
    }, 
    {
        "city": "Quimixtl\u00e1n", 
        "admin": "Puebla", 
        "country": "Mexico", 
        "population_proper": "", 
        "iso2": "MX", 
        "capital": "minor", 
        "lat": "19.253405", 
        "lng": "-97.136037", 
        "population": ""
    }, 
    {
        "city": "Jalpa", 
        "admin": "Zacatecas", 
        "country": "Mexico", 
        "population_proper": "", 
        "iso2": "MX", 
        "capital": "minor", 
        "lat": "21.634484", 
        "lng": "-102.979186", 
        "population": ""
    }, 
    {
        "city": "Jalpa de M\u00e9ndez", 
        "admin": "Tabasco", 
        "country": "Mexico", 
        "population_proper": "", 
        "iso2": "MX", 
        "capital": "minor", 
        "lat": "18.176328", 
        "lng": "-93.063004", 
        "population": ""
    }, 
    {
        "city": "Miahuatl\u00e1n de Porfirio D\u00edaz", 
        "admin": "Oaxaca", 
        "country": "Mexico", 
        "population_proper": "", 
        "iso2": "MX", 
        "capital": "minor", 
        "lat": "16.332762", 
        "lng": "-96.595622", 
        "population": ""
    }, 
    {
        "city": "Miacatl\u00e1n", 
        "admin": "Morelos", 
        "country": "Mexico", 
        "population_proper": "", 
        "iso2": "MX", 
        "capital": "minor", 
        "lat": "18.762028", 
        "lng": "-99.359444", 
        "population": ""
    }, 
    {
        "city": "Chiapilla", 
        "admin": "Chiapas", 
        "country": "Mexico", 
        "population_proper": "", 
        "iso2": "MX", 
        "capital": "minor", 
        "lat": "16.569753", 
        "lng": "-92.720369", 
        "population": ""
    }, 
    {
        "city": "San Pedro Topiltepec", 
        "admin": "Oaxaca", 
        "country": "Mexico", 
        "population_proper": "", 
        "iso2": "MX", 
        "capital": "minor", 
        "lat": "17.436325", 
        "lng": "-97.344026", 
        "population": ""
    }, 
    {
        "city": "San Pedro Tida\u00e1", 
        "admin": "Oaxaca", 
        "country": "Mexico", 
        "population_proper": "", 
        "iso2": "MX", 
        "capital": "minor", 
        "lat": "17.341221", 
        "lng": "-97.372388", 
        "population": ""
    }, 
    {
        "city": "Santiago Matatl\u00e1n", 
        "admin": "Oaxaca", 
        "country": "Mexico", 
        "population_proper": "", 
        "iso2": "MX", 
        "capital": "minor", 
        "lat": "16.864702", 
        "lng": "-96.382608", 
        "population": ""
    }, 
    {
        "city": "Santiago Miltepec", 
        "admin": "Oaxaca", 
        "country": "Mexico", 
        "population_proper": "", 
        "iso2": "MX", 
        "capital": "minor", 
        "lat": "17.984606", 
        "lng": "-97.690055", 
        "population": ""
    }, 
    {
        "city": "Tlanepantla", 
        "admin": "Puebla", 
        "country": "Mexico", 
        "population_proper": "", 
        "iso2": "MX", 
        "capital": "minor", 
        "lat": "18.863097", 
        "lng": "-97.887011", 
        "population": ""
    }, 
    {
        "city": "Comapa", 
        "admin": "Veracruz", 
        "country": "Mexico", 
        "population_proper": "", 
        "iso2": "MX", 
        "capital": "minor", 
        "lat": "19.164043", 
        "lng": "-96.886602", 
        "population": ""
    },